@Sonygps/ver3.0/wgs-84/

$GPGGA,091138.000,5320.4819,N,00136.3714,W,1,0,,395.0,M,,M,,*46
$GPRMC,091138.000,A,5320.4819,N,00136.3714,W,0.000,0.00,120812,,A*6F
$GPGGA,091153.000,5320.4749,N,00136.3661,W,1,0,,392.0,M,,M,,*45
$GPRMC,091153.000,A,5320.4749,N,00136.3661,W,0.000,0.00,120812,,A*6B
$GPGGA,091209.000,5320.4703,N,00136.3608,W,1,0,,393.0,M,,M,,*49
$GPRMC,091209.000,A,5320.4703,N,00136.3608,W,0.000,0.00,120812,,A*66
$GPGGA,091224.000,5320.4607,N,00136.3529,W,1,0,,393.0,M,,M,,*43
$GPRMC,091224.000,A,5320.4607,N,00136.3529,W,0.000,0.00,120812,,A*6C
$GPGGA,091239.000,5320.4506,N,00136.3401,W,1,0,,393.0,M,,M,,*46
$GPRMC,091239.000,A,5320.4506,N,00136.3401,W,0.000,0.00,120812,,A*69
$GPGGA,091254.000,5320.4506,N,00136.3332,W,1,0,,393.0,M,,M,,*4A
$GPRMC,091254.000,A,5320.4506,N,00136.3332,W,0.000,0.00,120812,,A*65
$GPGGA,091309.000,5320.4318,N,00136.3129,W,1,0,,393.0,M,,M,,*42
$GPRMC,091309.000,A,5320.4318,N,00136.3129,W,0.000,0.00,120812,,A*6D
$GPGGA,091325.000,5320.4192,N,00136.2970,W,1,0,,393.0,M,,M,,*49
$GPRMC,091325.000,A,5320.4192,N,00136.2970,W,0.000,0.00,120812,,A*66
$GPGGA,091340.000,5320.4078,N,00136.2830,W,1,0,,393.0,M,,M,,*4A
$GPRMC,091340.000,A,5320.4078,N,00136.2830,W,0.000,0.00,120812,,A*65
$GPGGA,091355.000,5320.4000,N,00136.2799,W,1,0,,393.0,M,,M,,*4D
$GPRMC,091355.000,A,5320.4000,N,00136.2799,W,0.000,0.00,120812,,A*62
$GPGGA,091410.000,5320.3959,N,00136.2689,W,1,0,,392.0,M,,M,,*48
$GPRMC,091410.000,A,5320.3959,N,00136.2689,W,0.000,0.00,120812,,A*66
$GPGGA,091426.000,5320.3867,N,00136.2568,W,1,0,,393.0,M,,M,,*4C
$GPRMC,091426.000,A,5320.3867,N,00136.2568,W,0.000,0.00,120812,,A*63
$GPGGA,091441.000,5320.3757,N,00136.2380,W,1,0,,393.0,M,,M,,*41
$GPRMC,091441.000,A,5320.3757,N,00136.2380,W,0.000,0.00,120812,,A*6E
$GPGGA,091456.000,5320.3650,N,00136.2242,W,1,0,,393.0,M,,M,,*4E
$GPRMC,091456.000,A,5320.3650,N,00136.2242,W,0.000,0.00,120812,,A*61
$GPGGA,091512.000,5320.3519,N,00136.2123,W,1,0,,392.0,M,,M,,*44
$GPRMC,091512.000,A,5320.3519,N,00136.2123,W,0.000,0.00,120812,,A*6A
$GPGGA,091528.000,5320.3384,N,00136.1900,W,1,0,,392.0,M,,M,,*45
$GPRMC,091528.000,A,5320.3384,N,00136.1900,W,0.000,0.00,120812,,A*6B
$GPGGA,091543.000,5320.3325,N,00136.1850,W,1,0,,392.0,M,,M,,*47
$GPRMC,091543.000,A,5320.3325,N,00136.1850,W,0.000,0.00,120812,,A*69
$GPGGA,091558.000,5320.3185,N,00136.1792,W,1,0,,392.0,M,,M,,*44
$GPRMC,091558.000,A,5320.3185,N,00136.1792,W,0.000,0.00,120812,,A*6A
$GPGGA,091613.000,5320.3135,N,00136.1662,W,1,0,,392.0,M,,M,,*4D
$GPRMC,091613.000,A,5320.3135,N,00136.1662,W,0.000,0.00,120812,,A*63
$GPGGA,091628.000,5320.3030,N,00136.1528,W,1,0,,392.0,M,,M,,*4C
$GPRMC,091628.000,A,5320.3030,N,00136.1528,W,0.000,0.00,120812,,A*62
$GPGGA,091643.000,5320.2940,N,00136.1476,W,1,0,,392.0,M,,M,,*44
$GPRMC,091643.000,A,5320.2940,N,00136.1476,W,0.000,0.00,120812,,A*6A
$GPGGA,091659.000,5320.2780,N,00136.1399,W,1,0,,392.0,M,,M,,*4B
$GPRMC,091659.000,A,5320.2780,N,00136.1399,W,0.000,0.00,120812,,A*65
$GPGGA,091714.000,5320.2702,N,00136.1326,W,1,0,,391.0,M,,M,,*4E
$GPRMC,091714.000,A,5320.2702,N,00136.1326,W,0.000,0.00,120812,,A*63
$GPGGA,091729.000,5320.2586,N,00136.1175,W,1,0,,391.0,M,,M,,*4A
$GPRMC,091729.000,A,5320.2586,N,00136.1175,W,0.000,0.00,120812,,A*67
$GPGGA,091747.000,5320.2517,N,00136.1051,W,1,0,,391.0,M,,M,,*4D
$GPRMC,091747.000,A,5320.2517,N,00136.1051,W,0.000,0.00,120812,,A*60
$GPGGA,091802.000,5320.2405,N,00136.0932,W,1,0,,391.0,M,,M,,*4C
$GPRMC,091802.000,A,5320.2405,N,00136.0932,W,0.000,0.00,120812,,A*61
$GPGGA,091817.000,5320.2272,N,00136.0817,W,1,0,,392.0,M,,M,,*4B
$GPRMC,091817.000,A,5320.2272,N,00136.0817,W,0.000,0.00,120812,,A*65
$GPGGA,091833.000,5320.2153,N,00136.0749,W,1,0,,391.0,M,,M,,*4A
$GPRMC,091833.000,A,5320.2153,N,00136.0749,W,0.000,0.00,120812,,A*67
$GPGGA,091848.000,5320.2064,N,00136.0679,W,1,0,,391.0,M,,M,,*41
$GPRMC,091848.000,A,5320.2064,N,00136.0679,W,0.000,0.00,120812,,A*6C
$GPGGA,091903.000,5320.2011,N,00136.0601,W,1,0,,392.0,M,,M,,*41
$GPRMC,091903.000,A,5320.2011,N,00136.0601,W,0.000,0.00,120812,,A*6F
$GPGGA,091918.000,5320.1835,N,00136.0448,W,1,0,,391.0,M,,M,,*4A
$GPRMC,091918.000,A,5320.1835,N,00136.0448,W,0.000,0.00,120812,,A*67
$GPGGA,091934.000,5320.1709,N,00136.0366,W,1,0,,391.0,M,,M,,*4F
$GPRMC,091934.000,A,5320.1709,N,00136.0366,W,0.000,0.00,120812,,A*62
$GPGGA,091950.000,5320.1636,N,00136.0337,W,1,0,,390.0,M,,M,,*45
$GPRMC,091950.000,A,5320.1636,N,00136.0337,W,0.000,0.00,120812,,A*69
$GPGGA,092005.000,5320.1537,N,00136.0292,W,1,0,,391.0,M,,M,,*42
$GPRMC,092005.000,A,5320.1537,N,00136.0292,W,0.000,0.00,120812,,A*6F
$GPGGA,092020.000,5320.1373,N,00136.0198,W,1,0,,390.0,M,,M,,*4B
$GPRMC,092020.000,A,5320.1373,N,00136.0198,W,0.000,0.00,120812,,A*67
$GPGGA,092036.000,5320.1205,N,00136.0175,W,1,0,,390.0,M,,M,,*4F
$GPRMC,092036.000,A,5320.1205,N,00136.0175,W,0.000,0.00,120812,,A*63
$GPGGA,092051.000,5320.1100,N,00136.0129,W,1,0,,389.0,M,,M,,*49
$GPRMC,092051.000,A,5320.1100,N,00136.0129,W,0.000,0.00,120812,,A*6D
$GPGGA,092106.000,5320.0983,N,00136.0088,W,1,0,,389.0,M,,M,,*42
$GPRMC,092106.000,A,5320.0983,N,00136.0088,W,0.000,0.00,120812,,A*66
$GPGGA,092121.000,5320.0869,N,00136.0027,W,1,0,,389.0,M,,M,,*47
$GPRMC,092121.000,A,5320.0869,N,00136.0027,W,0.000,0.00,120812,,A*63
$GPGGA,092137.000,5320.0757,N,00135.9949,W,1,0,,389.0,M,,M,,*49
$GPRMC,092137.000,A,5320.0757,N,00135.9949,W,0.000,0.00,120812,,A*6D
$GPGGA,092152.000,5320.0654,N,00135.9895,W,1,0,,389.0,M,,M,,*48
$GPRMC,092152.000,A,5320.0654,N,00135.9895,W,0.000,0.00,120812,,A*6C
$GPGGA,092208.000,5320.0512,N,00135.9793,W,1,0,,389.0,M,,M,,*4C
$GPRMC,092208.000,A,5320.0512,N,00135.9793,W,0.000,0.00,120812,,A*68
$GPGGA,092223.000,5320.0402,N,00135.9754,W,1,0,,389.0,M,,M,,*4E
$GPRMC,092223.000,A,5320.0402,N,00135.9754,W,0.000,0.00,120812,,A*6A
$GPGGA,092238.000,5320.0313,N,00135.9690,W,1,0,,388.0,M,,M,,*4B
$GPRMC,092238.000,A,5320.0313,N,00135.9690,W,0.000,0.00,120812,,A*6E
$GPGGA,092253.000,5320.0191,N,00135.9728,W,1,0,,388.0,M,,M,,*4C
$GPRMC,092253.000,A,5320.0191,N,00135.9728,W,0.000,0.00,120812,,A*69
$GPGGA,092309.000,5320.0038,N,00135.9705,W,1,0,,388.0,M,,M,,*4F
$GPRMC,092309.000,A,5320.0038,N,00135.9705,W,0.000,0.00,120812,,A*6A
$GPGGA,092324.000,5319.9942,N,00135.9729,W,1,0,,388.0,M,,M,,*49
$GPRMC,092324.000,A,5319.9942,N,00135.9729,W,0.000,0.00,120812,,A*6C
$GPGGA,092339.000,5319.9823,N,00135.9783,W,1,0,,388.0,M,,M,,*43
$GPRMC,092339.000,A,5319.9823,N,00135.9783,W,0.000,0.00,120812,,A*66
$GPGGA,092355.000,5319.9693,N,00135.9724,W,1,0,,387.0,M,,M,,*4E
$GPRMC,092355.000,A,5319.9693,N,00135.9724,W,0.000,0.00,120812,,A*64
$GPGGA,092410.000,5319.9574,N,00135.9698,W,1,0,,387.0,M,,M,,*44
$GPRMC,092410.000,A,5319.9574,N,00135.9698,W,0.000,0.00,120812,,A*6E
$GPGGA,092427.000,5319.9441,N,00135.9717,W,1,0,,387.0,M,,M,,*41
$GPRMC,092427.000,A,5319.9441,N,00135.9717,W,0.000,0.00,120812,,A*6B
$GPGGA,092443.000,5319.9274,N,00135.9624,W,1,0,,386.0,M,,M,,*43
$GPRMC,092443.000,A,5319.9274,N,00135.9624,W,0.000,0.00,120812,,A*68
$GPGGA,092458.000,5319.9134,N,00135.9590,W,1,0,,386.0,M,,M,,*42
$GPRMC,092458.000,A,5319.9134,N,00135.9590,W,0.000,0.00,120812,,A*69
$GPGGA,092513.000,5319.9047,N,00135.9561,W,1,0,,386.0,M,,M,,*47
$GPRMC,092513.000,A,5319.9047,N,00135.9561,W,0.000,0.00,120812,,A*6C
$GPGGA,092529.000,5319.8917,N,00135.9450,W,1,0,,386.0,M,,M,,*40
$GPRMC,092529.000,A,5319.8917,N,00135.9450,W,0.000,0.00,120812,,A*6B
$GPGGA,092544.000,5319.8843,N,00135.9411,W,1,0,,386.0,M,,M,,*4E
$GPRMC,092544.000,A,5319.8843,N,00135.9411,W,0.000,0.00,120812,,A*65
$GPGGA,092559.000,5319.8697,N,00135.9388,W,1,0,,386.0,M,,M,,*42
$GPRMC,092559.000,A,5319.8697,N,00135.9388,W,0.000,0.00,120812,,A*69
$GPGGA,092614.000,5319.8649,N,00135.9368,W,1,0,,386.0,M,,M,,*45
$GPRMC,092614.000,A,5319.8649,N,00135.9368,W,0.000,0.00,120812,,A*6E
$GPGGA,092629.000,5319.8534,N,00135.9401,W,1,0,,386.0,M,,M,,*4A
$GPRMC,092629.000,A,5319.8534,N,00135.9401,W,0.000,0.00,120812,,A*61
$GPGGA,092645.000,5319.8415,N,00135.9449,W,1,0,,386.0,M,,M,,*4E
$GPRMC,092645.000,A,5319.8415,N,00135.9449,W,0.000,0.00,120812,,A*65
$GPGGA,092700.000,5319.8317,N,00135.9461,W,1,0,,386.0,M,,M,,*41
$GPRMC,092700.000,A,5319.8317,N,00135.9461,W,0.000,0.00,120812,,A*6A
$GPGGA,092715.000,5319.8150,N,00135.9508,W,1,0,,386.0,M,,M,,*4A
$GPRMC,092715.000,A,5319.8150,N,00135.9508,W,0.000,0.00,120812,,A*61
$GPGGA,092731.000,5319.8058,N,00135.9480,W,1,0,,385.0,M,,M,,*47
$GPRMC,092731.000,A,5319.8058,N,00135.9480,W,0.000,0.00,120812,,A*6F
$GPGGA,092747.000,5319.7818,N,00135.9543,W,1,0,,385.0,M,,M,,*4B
$GPRMC,092747.000,A,5319.7818,N,00135.9543,W,0.000,0.00,120812,,A*63
$GPGGA,092802.000,5319.7779,N,00135.9661,W,1,0,,385.0,M,,M,,*4E
$GPRMC,092802.000,A,5319.7779,N,00135.9661,W,0.000,0.00,120812,,A*66
$GPGGA,092818.000,5319.7706,N,00135.9800,W,1,0,,384.0,M,,M,,*45
$GPRMC,092818.000,A,5319.7706,N,00135.9800,W,0.000,0.00,120812,,A*6C
$GPGGA,092833.000,5319.7580,N,00135.9912,W,1,0,,384.0,M,,M,,*42
$GPRMC,092833.000,A,5319.7580,N,00135.9912,W,0.000,0.00,120812,,A*6B
$GPGGA,092848.000,5319.7518,N,00136.0035,W,1,0,,383.0,M,,M,,*4E
$GPRMC,092848.000,A,5319.7518,N,00136.0035,W,0.000,0.00,120812,,A*60
$GPGGA,092903.000,5319.7504,N,00136.0218,W,1,0,,383.0,M,,M,,*40
$GPRMC,092903.000,A,5319.7504,N,00136.0218,W,0.000,0.00,120812,,A*6E
$GPGGA,092918.000,5319.7500,N,00136.0398,W,1,0,,383.0,M,,M,,*47
$GPRMC,092918.000,A,5319.7500,N,00136.0398,W,0.000,0.00,120812,,A*69
$GPGGA,092933.000,5319.7397,N,00136.0540,W,1,0,,382.0,M,,M,,*44
$GPRMC,092933.000,A,5319.7397,N,00136.0540,W,0.000,0.00,120812,,A*6B
$GPGGA,092948.000,5319.7392,N,00136.0583,W,1,0,,382.0,M,,M,,*42
$GPRMC,092948.000,A,5319.7392,N,00136.0583,W,0.000,0.00,120812,,A*6D
$GPGGA,093003.000,5319.7369,N,00136.0671,W,1,0,,382.0,M,,M,,*4F
$GPRMC,093003.000,A,5319.7369,N,00136.0671,W,0.000,0.00,120812,,A*60
$GPGGA,093018.000,5319.7294,N,00136.0848,W,1,0,,381.0,M,,M,,*41
$GPRMC,093018.000,A,5319.7294,N,00136.0848,W,0.000,0.00,120812,,A*6D
$GPGGA,093035.000,5319.7385,N,00136.0988,W,1,0,,381.0,M,,M,,*42
$GPRMC,093035.000,A,5319.7385,N,00136.0988,W,0.000,0.00,120812,,A*6E
$GPGGA,093050.000,5319.7415,N,00136.1087,W,1,0,,380.0,M,,M,,*49
$GPRMC,093050.000,A,5319.7415,N,00136.1087,W,0.000,0.00,120812,,A*64
$GPGGA,093105.000,5319.7417,N,00136.1271,W,1,0,,380.0,M,,M,,*41
$GPRMC,093105.000,A,5319.7417,N,00136.1271,W,0.000,0.00,120812,,A*6C
$GPGGA,093120.000,5319.7317,N,00136.1351,W,1,0,,379.0,M,,M,,*44
$GPRMC,093120.000,A,5319.7317,N,00136.1351,W,0.000,0.00,120812,,A*6F
$GPGGA,093135.000,5319.7390,N,00136.1483,W,1,0,,379.0,M,,M,,*47
$GPRMC,093135.000,A,5319.7390,N,00136.1483,W,0.000,0.00,120812,,A*6C
$GPGGA,093150.000,5319.7381,N,00136.1546,W,1,0,,379.0,M,,M,,*4C
$GPRMC,093150.000,A,5319.7381,N,00136.1546,W,0.000,0.00,120812,,A*67
$GPGGA,093205.000,5319.7266,N,00136.1575,W,1,0,,379.0,M,,M,,*47
$GPRMC,093205.000,A,5319.7266,N,00136.1575,W,0.000,0.00,120812,,A*6C
$GPGGA,093221.000,5319.7388,N,00136.1863,W,1,0,,379.0,M,,M,,*4A
$GPRMC,093221.000,A,5319.7388,N,00136.1863,W,0.000,0.00,120812,,A*61
$GPGGA,093236.000,5319.7344,N,00136.1986,W,1,0,,379.0,M,,M,,*46
$GPRMC,093236.000,A,5319.7344,N,00136.1986,W,0.000,0.00,120812,,A*6D
$GPGGA,093251.000,5319.7388,N,00136.2068,W,1,0,,379.0,M,,M,,*4D
$GPRMC,093251.000,A,5319.7388,N,00136.2068,W,0.000,0.00,120812,,A*66
$GPGGA,093306.000,5319.7385,N,00136.2245,W,1,0,,378.0,M,,M,,*4F
$GPRMC,093306.000,A,5319.7385,N,00136.2245,W,0.000,0.00,120812,,A*65
$GPGGA,093322.000,5319.7360,N,00136.2389,W,1,0,,377.0,M,,M,,*4C
$GPRMC,093322.000,A,5319.7360,N,00136.2389,W,0.000,0.00,120812,,A*69
$GPGGA,093337.000,5319.7344,N,00136.2511,W,1,0,,377.0,M,,M,,*49
$GPRMC,093337.000,A,5319.7344,N,00136.2511,W,0.000,0.00,120812,,A*6C
$GPGGA,093352.000,5319.7335,N,00136.2651,W,1,0,,376.0,M,,M,,*4A
$GPRMC,093352.000,A,5319.7335,N,00136.2651,W,0.000,0.00,120812,,A*6E
$GPGGA,093407.000,5319.7342,N,00136.2818,W,1,0,,376.0,M,,M,,*4E
$GPRMC,093407.000,A,5319.7342,N,00136.2818,W,0.000,0.00,120812,,A*6A
$GPGGA,093423.000,5319.7340,N,00136.2954,W,1,0,,376.0,M,,M,,*43
$GPRMC,093423.000,A,5319.7340,N,00136.2954,W,0.000,0.00,120812,,A*67
$GPGGA,093438.000,5319.7333,N,00136.3045,W,1,0,,375.0,M,,M,,*46
$GPRMC,093438.000,A,5319.7333,N,00136.3045,W,0.000,0.00,120812,,A*61
$GPGGA,093453.000,5319.7266,N,00136.3166,W,1,0,,374.0,M,,M,,*4B
$GPRMC,093453.000,A,5319.7266,N,00136.3166,W,0.000,0.00,120812,,A*6D
$GPGGA,093509.000,5319.7289,N,00136.3291,W,1,0,,374.0,M,,M,,*4F
$GPRMC,093509.000,A,5319.7289,N,00136.3291,W,0.000,0.00,120812,,A*69
$GPGGA,093525.000,5319.7381,N,00136.3551,W,1,0,,373.0,M,,M,,*44
$GPRMC,093525.000,A,5319.7381,N,00136.3551,W,0.000,0.00,120812,,A*65
$GPGGA,093540.000,5319.7518,N,00136.3655,W,1,0,,372.0,M,,M,,*47
$GPRMC,093540.000,A,5319.7518,N,00136.3655,W,0.000,0.00,120812,,A*67
$GPGGA,093556.000,5319.7449,N,00136.3739,W,1,0,,372.0,M,,M,,*4E
$GPRMC,093556.000,A,5319.7449,N,00136.3739,W,0.000,0.00,120812,,A*6E
$GPGGA,093611.000,5319.7438,N,00136.3865,W,1,0,,372.0,M,,M,,*4E
$GPRMC,093611.000,A,5319.7438,N,00136.3865,W,0.000,0.00,120812,,A*6E
$GPGGA,093626.000,5319.7454,N,00136.3998,W,1,0,,372.0,M,,M,,*43
$GPRMC,093626.000,A,5319.7454,N,00136.3998,W,0.000,0.00,120812,,A*63
$GPGGA,093643.000,5319.7438,N,00136.4206,W,1,0,,371.0,M,,M,,*42
$GPRMC,093643.000,A,5319.7438,N,00136.4206,W,0.000,0.00,120812,,A*61
$GPGGA,093659.000,5319.7445,N,00136.4325,W,1,0,,371.0,M,,M,,*43
$GPRMC,093659.000,A,5319.7445,N,00136.4325,W,0.000,0.00,120812,,A*60
$GPGGA,093714.000,5319.7466,N,00136.4459,W,1,0,,370.0,M,,M,,*47
$GPRMC,093714.000,A,5319.7466,N,00136.4459,W,0.000,0.00,120812,,A*65
$GPGGA,093729.000,5319.7678,N,00136.4602,W,1,0,,370.0,M,,M,,*48
$GPRMC,093729.000,A,5319.7678,N,00136.4602,W,0.000,0.00,120812,,A*6A
$GPGGA,093744.000,5319.7724,N,00136.4676,W,1,0,,370.0,M,,M,,*48
$GPRMC,093744.000,A,5319.7724,N,00136.4676,W,0.000,0.00,120812,,A*6A
$GPGGA,093759.000,5319.7763,N,00136.4765,W,1,0,,368.0,M,,M,,*4D
$GPRMC,093759.000,A,5319.7763,N,00136.4765,W,0.000,0.00,120812,,A*66
$GPGGA,093814.000,5319.7841,N,00136.4866,W,1,0,,368.0,M,,M,,*48
$GPRMC,093814.000,A,5319.7841,N,00136.4866,W,0.000,0.00,120812,,A*63
$GPGGA,093830.000,5319.7868,N,00136.5094,W,1,0,,367.0,M,,M,,*4E
$GPRMC,093830.000,A,5319.7868,N,00136.5094,W,0.000,0.00,120812,,A*6A
$GPGGA,093845.000,5319.7907,N,00136.5156,W,1,0,,367.0,M,,M,,*4B
$GPRMC,093845.000,A,5319.7907,N,00136.5156,W,0.000,0.00,120812,,A*6F
$GPGGA,093901.000,5319.7964,N,00136.5260,W,1,0,,367.0,M,,M,,*49
$GPRMC,093901.000,A,5319.7964,N,00136.5260,W,0.000,0.00,120812,,A*6D
$GPGGA,093917.000,5319.7898,N,00136.5326,W,1,0,,366.0,M,,M,,*4E
$GPRMC,093917.000,A,5319.7898,N,00136.5326,W,0.000,0.00,120812,,A*6B
$GPGGA,093933.000,5319.7855,N,00136.5487,W,1,0,,366.0,M,,M,,*45
$GPRMC,093933.000,A,5319.7855,N,00136.5487,W,0.000,0.00,120812,,A*60
$GPGGA,093949.000,5319.7836,N,00136.5615,W,1,0,,366.0,M,,M,,*44
$GPRMC,093949.000,A,5319.7836,N,00136.5615,W,0.000,0.00,120812,,A*61
$GPGGA,094004.000,5319.7811,N,00136.5692,W,1,0,,365.0,M,,M,,*4A
$GPRMC,094004.000,A,5319.7811,N,00136.5692,W,0.000,0.00,120812,,A*6C
$GPGGA,094019.000,5319.7836,N,00136.5745,W,1,0,,365.0,M,,M,,*48
$GPRMC,094019.000,A,5319.7836,N,00136.5745,W,0.000,0.00,120812,,A*6E
$GPGGA,094034.000,5319.7845,N,00136.5880,W,1,0,,365.0,M,,M,,*45
$GPRMC,094034.000,A,5319.7845,N,00136.5880,W,0.000,0.00,120812,,A*63
$GPGGA,094050.000,5319.7964,N,00136.6074,W,1,0,,365.0,M,,M,,*45
$GPRMC,094050.000,A,5319.7964,N,00136.6074,W,0.000,0.00,120812,,A*63
$GPGGA,094105.000,5319.7960,N,00136.6153,W,1,0,,365.0,M,,M,,*44
$GPRMC,094105.000,A,5319.7960,N,00136.6153,W,0.000,0.00,120812,,A*62
$GPGGA,094120.000,5319.7999,N,00136.6294,W,1,0,,365.0,M,,M,,*4D
$GPRMC,094120.000,A,5319.7999,N,00136.6294,W,0.000,0.00,120812,,A*6B
$GPGGA,094135.000,5319.8031,N,00136.6292,W,1,0,,365.0,M,,M,,*4B
$GPRMC,094135.000,A,5319.8031,N,00136.6292,W,0.000,0.00,120812,,A*6D
$GPGGA,094151.000,5319.8090,N,00136.6324,W,1,0,,365.0,M,,M,,*4E
$GPRMC,094151.000,A,5319.8090,N,00136.6324,W,0.000,0.00,120812,,A*68
$GPGGA,094206.000,5319.8166,N,00136.6377,W,1,0,,365.0,M,,M,,*41
$GPRMC,094206.000,A,5319.8166,N,00136.6377,W,0.000,0.00,120812,,A*67
$GPGGA,094221.000,5319.8212,N,00136.6496,W,1,0,,365.0,M,,M,,*4C
$GPRMC,094221.000,A,5319.8212,N,00136.6496,W,0.000,0.00,120812,,A*6A
$GPGGA,094236.000,5319.8251,N,00136.6636,W,1,0,,365.0,M,,M,,*45
$GPRMC,094236.000,A,5319.8251,N,00136.6636,W,0.000,0.00,120812,,A*63
$GPGGA,094251.000,5319.8273,N,00136.6769,W,1,0,,365.0,M,,M,,*4F
$GPRMC,094251.000,A,5319.8273,N,00136.6769,W,0.000,0.00,120812,,A*69
$GPGGA,094306.000,5319.8262,N,00136.6906,W,1,0,,365.0,M,,M,,*4B
$GPRMC,094306.000,A,5319.8262,N,00136.6906,W,0.000,0.00,120812,,A*6D
$GPGGA,094321.000,5319.8354,N,00136.7087,W,1,0,,365.0,M,,M,,*4B
$GPRMC,094321.000,A,5319.8354,N,00136.7087,W,0.000,0.00,120812,,A*6D
$GPGGA,094336.000,5319.8342,N,00136.7194,W,1,0,,365.0,M,,M,,*49
$GPRMC,094336.000,A,5319.8342,N,00136.7194,W,0.000,0.00,120812,,A*6F
$GPGGA,094351.000,5319.8360,N,00136.7289,W,1,0,,365.0,M,,M,,*47
$GPRMC,094351.000,A,5319.8360,N,00136.7289,W,0.000,0.00,120812,,A*61
$GPGGA,094406.000,5319.8425,N,00136.7434,W,1,0,,365.0,M,,M,,*44
$GPRMC,094406.000,A,5319.8425,N,00136.7434,W,0.000,0.00,120812,,A*62
$GPGGA,094421.000,5319.8457,N,00136.7585,W,1,0,,365.0,M,,M,,*4F
$GPRMC,094421.000,A,5319.8457,N,00136.7585,W,0.000,0.00,120812,,A*69
$GPGGA,094436.000,5319.8463,N,00136.7686,W,1,0,,365.0,M,,M,,*4E
$GPRMC,094436.000,A,5319.8463,N,00136.7686,W,0.000,0.00,120812,,A*68
$GPGGA,094451.000,5319.8473,N,00136.7757,W,1,0,,365.0,M,,M,,*43
$GPRMC,094451.000,A,5319.8473,N,00136.7757,W,0.000,0.00,120812,,A*65
$GPGGA,094506.000,5319.8411,N,00136.7858,W,1,0,,365.0,M,,M,,*44
$GPRMC,094506.000,A,5319.8411,N,00136.7858,W,0.000,0.00,120812,,A*62
$GPGGA,094521.000,5319.8498,N,00136.8015,W,1,0,,365.0,M,,M,,*4E
$GPRMC,094521.000,A,5319.8498,N,00136.8015,W,0.000,0.00,120812,,A*68
$GPGGA,094537.000,5319.8489,N,00136.8204,W,1,0,,365.0,M,,M,,*4B
$GPRMC,094537.000,A,5319.8489,N,00136.8204,W,0.000,0.00,120812,,A*6D
$GPGGA,094554.000,5319.8491,N,00136.8292,W,1,0,,365.0,M,,M,,*48
$GPRMC,094554.000,A,5319.8491,N,00136.8292,W,0.000,0.00,120812,,A*6E
$GPGGA,094609.000,5319.8482,N,00136.8256,W,1,0,,366.0,M,,M,,*4A
$GPRMC,094609.000,A,5319.8482,N,00136.8256,W,0.000,0.00,120812,,A*6F
$GPGGA,094624.000,5319.8635,N,00136.8431,W,1,0,,366.0,M,,M,,*4C
$GPRMC,094624.000,A,5319.8635,N,00136.8431,W,0.000,0.00,120812,,A*69
$GPGGA,094641.000,5319.8720,N,00136.8447,W,1,0,,366.0,M,,M,,*4B
$GPRMC,094641.000,A,5319.8720,N,00136.8447,W,0.000,0.00,120812,,A*6E
$GPGGA,094656.000,5319.8832,N,00136.8507,W,1,0,,366.0,M,,M,,*44
$GPRMC,094656.000,A,5319.8832,N,00136.8507,W,0.000,0.00,120812,,A*61
$GPGGA,094711.000,5319.8907,N,00136.8537,W,1,0,,366.0,M,,M,,*42
$GPRMC,094711.000,A,5319.8907,N,00136.8537,W,0.000,0.00,120812,,A*67
$GPGGA,094727.000,5319.9024,N,00136.8618,W,1,0,,366.0,M,,M,,*40
$GPRMC,094727.000,A,5319.9024,N,00136.8618,W,0.000,0.00,120812,,A*65
$GPGGA,094743.000,5319.9102,N,00136.8552,W,1,0,,366.0,M,,M,,*4A
$GPRMC,094743.000,A,5319.9102,N,00136.8552,W,0.000,0.00,120812,,A*6F
$GPGGA,094802.000,5319.9120,N,00136.8547,W,1,0,,366.0,M,,M,,*44
$GPRMC,094802.000,A,5319.9120,N,00136.8547,W,0.000,0.00,120812,,A*61
$GPGGA,094818.000,5319.9278,N,00136.8695,W,1,0,,366.0,M,,M,,*4D
$GPRMC,094818.000,A,5319.9278,N,00136.8695,W,0.000,0.00,120812,,A*68
$GPGGA,094834.000,5319.9333,N,00136.8755,W,1,0,,365.0,M,,M,,*43
$GPRMC,094834.000,A,5319.9333,N,00136.8755,W,0.000,0.00,120812,,A*65
$GPGGA,094849.000,5319.9368,N,00136.8727,W,1,0,,366.0,M,,M,,*41
$GPRMC,094849.000,A,5319.9368,N,00136.8727,W,0.000,0.00,120812,,A*64
$GPGGA,094904.000,5319.9402,N,00136.8746,W,1,0,,365.0,M,,M,,*46
$GPRMC,094904.000,A,5319.9402,N,00136.8746,W,0.000,0.00,120812,,A*60
$GPGGA,094920.000,5319.9471,N,00136.8798,W,1,0,,366.0,M,,M,,*44
$GPRMC,094920.000,A,5319.9471,N,00136.8798,W,0.000,0.00,120812,,A*61
$GPGGA,094936.000,5319.9461,N,00136.8795,W,1,0,,366.0,M,,M,,*4F
$GPRMC,094936.000,A,5319.9461,N,00136.8795,W,0.000,0.00,120812,,A*6A
$GPGGA,094951.000,5319.9539,N,00136.8933,W,1,0,,366.0,M,,M,,*40
$GPRMC,094951.000,A,5319.9539,N,00136.8933,W,0.000,0.00,120812,,A*65
$GPGGA,095015.000,5319.9562,N,00136.8916,W,1,0,,366.0,M,,M,,*41
$GPRMC,095015.000,A,5319.9562,N,00136.8916,W,0.000,0.00,120812,,A*64
$GPGGA,095030.000,5319.9580,N,00136.8905,W,1,0,,366.0,M,,M,,*48
$GPRMC,095030.000,A,5319.9580,N,00136.8905,W,0.000,0.00,120812,,A*6D
$GPGGA,095046.000,5319.9693,N,00136.8924,W,1,0,,366.0,M,,M,,*4B
$GPRMC,095046.000,A,5319.9693,N,00136.8924,W,0.000,0.00,120812,,A*6E
$GPGGA,095102.000,5319.9876,N,00136.9021,W,1,0,,366.0,M,,M,,*42
$GPRMC,095102.000,A,5319.9876,N,00136.9021,W,0.000,0.00,120812,,A*67
$GPGGA,095117.000,5319.9775,N,00136.9009,W,1,0,,366.0,M,,M,,*40
$GPRMC,095117.000,A,5319.9775,N,00136.9009,W,0.000,0.00,120812,,A*65
$GPGGA,095132.000,5319.9784,N,00136.8991,W,1,0,,366.0,M,,M,,*40
$GPRMC,095132.000,A,5319.9784,N,00136.8991,W,0.000,0.00,120812,,A*65
$GPGGA,095147.000,5319.9807,N,00136.8961,W,1,0,,366.0,M,,M,,*49
$GPRMC,095147.000,A,5319.9807,N,00136.8961,W,0.000,0.00,120812,,A*6C
$GPGGA,095205.000,5319.9860,N,00136.8893,W,1,0,,366.0,M,,M,,*41
$GPRMC,095205.000,A,5319.9860,N,00136.8893,W,0.000,0.00,120812,,A*64
$GPGGA,095220.000,5319.9883,N,00136.8862,W,1,0,,367.0,M,,M,,*44
$GPRMC,095220.000,A,5319.9883,N,00136.8862,W,0.000,0.00,120812,,A*60
$GPGGA,095236.000,5320.0029,N,00136.8920,W,1,0,,367.0,M,,M,,*4F
$GPRMC,095236.000,A,5320.0029,N,00136.8920,W,0.000,0.00,120812,,A*6B
$GPGGA,095252.000,5320.0008,N,00136.8958,W,1,0,,367.0,M,,M,,*41
$GPRMC,095252.000,A,5320.0008,N,00136.8958,W,0.000,0.00,120812,,A*65
$GPGGA,095307.000,5320.0221,N,00136.9014,W,1,0,,368.0,M,,M,,*46
$GPRMC,095307.000,A,5320.0221,N,00136.9014,W,0.000,0.00,120812,,A*6D
$GPGGA,095322.000,5320.0285,N,00136.9024,W,1,0,,368.0,M,,M,,*4C
$GPRMC,095322.000,A,5320.0285,N,00136.9024,W,0.000,0.00,120812,,A*67
$GPGGA,095337.000,5320.0363,N,00136.8991,W,1,0,,368.0,M,,M,,*47
$GPRMC,095337.000,A,5320.0363,N,00136.8991,W,0.000,0.00,120812,,A*6C
$GPGGA,095352.000,5320.0359,N,00136.9020,W,1,0,,368.0,M,,M,,*4F
$GPRMC,095352.000,A,5320.0359,N,00136.9020,W,0.000,0.00,120812,,A*64
$GPGGA,095414.000,5320.0340,N,00136.9017,W,1,0,,368.0,M,,M,,*46
$GPRMC,095414.000,A,5320.0340,N,00136.9017,W,0.000,0.00,120812,,A*6D
$GPGGA,095429.000,5320.0336,N,00136.9031,W,1,0,,368.0,M,,M,,*4D
$GPRMC,095429.000,A,5320.0336,N,00136.9031,W,0.000,0.00,120812,,A*66
$GPGGA,095445.000,5320.0162,N,00136.9054,W,1,0,,369.0,M,,M,,*46
$GPRMC,095445.000,A,5320.0162,N,00136.9054,W,0.000,0.00,120812,,A*6C
$GPGGA,095500.000,5320.0054,N,00136.9110,W,1,0,,369.0,M,,M,,*43
$GPRMC,095500.000,A,5320.0054,N,00136.9110,W,0.000,0.00,120812,,A*69
$GPGGA,095515.000,5320.0109,N,00136.9076,W,1,0,,369.0,M,,M,,*4F
$GPRMC,095515.000,A,5320.0109,N,00136.9076,W,0.000,0.00,120812,,A*65
$GPGGA,095530.000,5320.0098,N,00136.9073,W,1,0,,370.0,M,,M,,*4C
$GPRMC,095530.000,A,5320.0098,N,00136.9073,W,0.000,0.00,120812,,A*6E
$GPGGA,095547.000,5320.0072,N,00136.9101,W,1,0,,369.0,M,,M,,*44
$GPRMC,095547.000,A,5320.0072,N,00136.9101,W,0.000,0.00,120812,,A*6E
$GPGGA,095602.000,5320.0036,N,00136.9139,W,1,0,,369.0,M,,M,,*4D
$GPRMC,095602.000,A,5320.0036,N,00136.9139,W,0.000,0.00,120812,,A*67
$GPGGA,095617.000,5320.0061,N,00136.9194,W,1,0,,370.0,M,,M,,*44
$GPRMC,095617.000,A,5320.0061,N,00136.9194,W,0.000,0.00,120812,,A*66
$GPGGA,095632.000,5320.0230,N,00136.9221,W,1,0,,369.0,M,,M,,*40
$GPRMC,095632.000,A,5320.0230,N,00136.9221,W,0.000,0.00,120812,,A*6A
$GPGGA,095647.000,5320.0301,N,00136.9211,W,1,0,,369.0,M,,M,,*42
$GPRMC,095647.000,A,5320.0301,N,00136.9211,W,0.000,0.00,120812,,A*68
$GPGGA,095703.000,5320.0452,N,00136.9273,W,1,0,,370.0,M,,M,,*4E
$GPRMC,095703.000,A,5320.0452,N,00136.9273,W,0.000,0.00,120812,,A*6C
$GPGGA,095718.000,5320.0482,N,00136.9220,W,1,0,,370.0,M,,M,,*4F
$GPRMC,095718.000,A,5320.0482,N,00136.9220,W,0.000,0.00,120812,,A*6D
$GPGGA,095733.000,5320.0446,N,00136.9172,W,1,0,,370.0,M,,M,,*4A
$GPRMC,095733.000,A,5320.0446,N,00136.9172,W,0.000,0.00,120812,,A*68
$GPGGA,095748.000,5320.0734,N,00136.9200,W,1,0,,371.0,M,,M,,*47
$GPRMC,095748.000,A,5320.0734,N,00136.9200,W,0.000,0.00,120812,,A*64
$GPGGA,095804.000,5320.0816,N,00136.9263,W,1,0,,370.0,M,,M,,*4B
$GPRMC,095804.000,A,5320.0816,N,00136.9263,W,0.000,0.00,120812,,A*69
$GPGGA,095819.000,5320.0915,N,00136.9463,W,1,0,,371.0,M,,M,,*42
$GPRMC,095819.000,A,5320.0915,N,00136.9463,W,0.000,0.00,120812,,A*61
$GPGGA,095835.000,5320.1009,N,00136.9459,W,1,0,,371.0,M,,M,,*40
$GPRMC,095835.000,A,5320.1009,N,00136.9459,W,0.000,0.00,120812,,A*63
$GPGGA,095850.000,5320.1061,N,00136.9413,W,1,0,,371.0,M,,M,,*43
$GPRMC,095850.000,A,5320.1061,N,00136.9413,W,0.000,0.00,120812,,A*60
$GPGGA,095906.000,5320.1112,N,00136.9420,W,1,0,,371.0,M,,M,,*44
$GPRMC,095906.000,A,5320.1112,N,00136.9420,W,0.000,0.00,120812,,A*67
$GPGGA,095921.000,5320.1157,N,00136.9407,W,1,0,,371.0,M,,M,,*45
$GPRMC,095921.000,A,5320.1157,N,00136.9407,W,0.000,0.00,120812,,A*66
$GPGGA,095936.000,5320.1267,N,00136.9423,W,1,0,,371.0,M,,M,,*45
$GPRMC,095936.000,A,5320.1267,N,00136.9423,W,0.000,0.00,120812,,A*66
$GPGGA,095951.000,5320.1338,N,00136.9445,W,1,0,,371.0,M,,M,,*4F
$GPRMC,095951.000,A,5320.1338,N,00136.9445,W,0.000,0.00,120812,,A*6C
$GPGGA,100006.000,5320.1418,N,00136.9501,W,1,0,,372.0,M,,M,,*4E
$GPRMC,100006.000,A,5320.1418,N,00136.9501,W,0.000,0.00,120812,,A*6E
$GPGGA,100023.000,5320.1512,N,00136.9604,W,1,0,,371.0,M,,M,,*47
$GPRMC,100023.000,A,5320.1512,N,00136.9604,W,0.000,0.00,120812,,A*64
$GPGGA,100038.000,5320.1624,N,00136.9646,W,1,0,,372.0,M,,M,,*4E
$GPRMC,100038.000,A,5320.1624,N,00136.9646,W,0.000,0.00,120812,,A*6E
$GPGGA,100054.000,5320.1796,N,00136.9732,W,1,0,,372.0,M,,M,,*4E
$GPRMC,100054.000,A,5320.1796,N,00136.9732,W,0.000,0.00,120812,,A*6E
$GPGGA,100110.000,5320.1878,N,00136.9868,W,1,0,,372.0,M,,M,,*40
$GPRMC,100110.000,A,5320.1878,N,00136.9868,W,0.000,0.00,120812,,A*60
$GPGGA,100125.000,5320.2041,N,00137.0006,W,1,0,,372.0,M,,M,,*4F
$GPRMC,100125.000,A,5320.2041,N,00137.0006,W,0.000,0.00,120812,,A*6F
$GPGGA,100141.000,5320.2084,N,00136.9967,W,1,0,,372.0,M,,M,,*42
$GPRMC,100141.000,A,5320.2084,N,00136.9967,W,0.000,0.00,120812,,A*62
$GPGGA,100156.000,5320.2226,N,00136.9909,W,1,0,,372.0,M,,M,,*46
$GPRMC,100156.000,A,5320.2226,N,00136.9909,W,0.000,0.00,120812,,A*66
$GPGGA,100211.000,5320.2279,N,00136.9972,W,1,0,,372.0,M,,M,,*40
$GPRMC,100211.000,A,5320.2279,N,00136.9972,W,0.000,0.00,120812,,A*60
$GPGGA,100227.000,5320.2350,N,00137.0028,W,1,0,,373.0,M,,M,,*40
$GPRMC,100227.000,A,5320.2350,N,00137.0028,W,0.000,0.00,120812,,A*61
$GPGGA,100242.000,5320.2299,N,00137.0193,W,1,0,,372.0,M,,M,,*47
$GPRMC,100242.000,A,5320.2299,N,00137.0193,W,0.000,0.00,120812,,A*67
$GPGGA,100257.000,5320.2258,N,00137.0419,W,1,0,,373.0,M,,M,,*48
$GPRMC,100257.000,A,5320.2258,N,00137.0419,W,0.000,0.00,120812,,A*69
$GPGGA,100312.000,5320.2240,N,00137.0510,W,1,0,,372.0,M,,M,,*48
$GPRMC,100312.000,A,5320.2240,N,00137.0510,W,0.000,0.00,120812,,A*68
$GPGGA,100328.000,5320.2137,N,00137.0693,W,1,0,,373.0,M,,M,,*4B
$GPRMC,100328.000,A,5320.2137,N,00137.0693,W,0.000,0.00,120812,,A*6A
$GPGGA,100343.000,5320.2098,N,00137.0836,W,1,0,,373.0,M,,M,,*43
$GPRMC,100343.000,A,5320.2098,N,00137.0836,W,0.000,0.00,120812,,A*62
$GPGGA,100358.000,5320.2036,N,00137.1003,W,1,0,,373.0,M,,M,,*42
$GPRMC,100358.000,A,5320.2036,N,00137.1003,W,0.000,0.00,120812,,A*63
$GPGGA,100414.000,5320.2004,N,00137.1108,W,1,0,,372.0,M,,M,,*47
$GPRMC,100414.000,A,5320.2004,N,00137.1108,W,0.000,0.00,120812,,A*67
$GPGGA,100429.000,5320.1968,N,00137.1214,W,1,0,,372.0,M,,M,,*47
$GPRMC,100429.000,A,5320.1968,N,00137.1214,W,0.000,0.00,120812,,A*67
$GPGGA,100444.000,5320.1938,N,00137.1304,W,1,0,,373.0,M,,M,,*48
$GPRMC,100444.000,A,5320.1938,N,00137.1304,W,0.000,0.00,120812,,A*69
$GPGGA,100459.000,5320.1901,N,00137.1464,W,1,0,,373.0,M,,M,,*4F
$GPRMC,100459.000,A,5320.1901,N,00137.1464,W,0.000,0.00,120812,,A*6E
$GPGGA,100515.000,5320.1885,N,00137.1584,W,1,0,,373.0,M,,M,,*44
$GPRMC,100515.000,A,5320.1885,N,00137.1584,W,0.000,0.00,120812,,A*65
$GPGGA,100530.000,5320.1839,N,00137.1680,W,1,0,,373.0,M,,M,,*43
$GPRMC,100530.000,A,5320.1839,N,00137.1680,W,0.000,0.00,120812,,A*62
$GPGGA,100545.000,5320.1803,N,00137.1768,W,1,0,,373.0,M,,M,,*4F
$GPRMC,100545.000,A,5320.1803,N,00137.1768,W,0.000,0.00,120812,,A*6E
$GPGGA,100601.000,5320.1762,N,00137.1865,W,1,0,,373.0,M,,M,,*46
$GPRMC,100601.000,A,5320.1762,N,00137.1865,W,0.000,0.00,120812,,A*67
$GPGGA,100616.000,5320.1757,N,00137.1887,W,1,0,,373.0,M,,M,,*4A
$GPRMC,100616.000,A,5320.1757,N,00137.1887,W,0.000,0.00,120812,,A*6B
$GPGGA,100631.000,5320.1711,N,00137.1978,W,1,0,,373.0,M,,M,,*4C
$GPRMC,100631.000,A,5320.1711,N,00137.1978,W,0.000,0.00,120812,,A*6D
$GPGGA,100646.000,5320.1693,N,00137.2081,W,1,0,,373.0,M,,M,,*4B
$GPRMC,100646.000,A,5320.1693,N,00137.2081,W,0.000,0.00,120812,,A*6A
$GPGGA,100702.000,5320.1640,N,00137.2194,W,1,0,,373.0,M,,M,,*41
$GPRMC,100702.000,A,5320.1640,N,00137.2194,W,0.000,0.00,120812,,A*60
$GPGGA,100717.000,5320.1613,N,00137.2318,W,1,0,,373.0,M,,M,,*45
$GPRMC,100717.000,A,5320.1613,N,00137.2318,W,0.000,0.00,120812,,A*64
$GPGGA,100732.000,5320.1542,N,00137.2422,W,1,0,,373.0,M,,M,,*4B
$GPRMC,100732.000,A,5320.1542,N,00137.2422,W,0.000,0.00,120812,,A*6A
$GPGGA,100748.000,5320.1476,N,00137.2574,W,1,0,,373.0,M,,M,,*42
$GPRMC,100748.000,A,5320.1476,N,00137.2574,W,0.000,0.00,120812,,A*63
$GPGGA,100803.000,5320.1430,N,00137.2663,W,1,0,,372.0,M,,M,,*44
$GPRMC,100803.000,A,5320.1430,N,00137.2663,W,0.000,0.00,120812,,A*64
$GPGGA,100818.000,5320.1432,N,00137.2850,W,1,0,,372.0,M,,M,,*42
$GPRMC,100818.000,A,5320.1432,N,00137.2850,W,0.000,0.00,120812,,A*62
$GPGGA,100833.000,5320.1416,N,00137.2956,W,1,0,,372.0,M,,M,,*4A
$GPRMC,100833.000,A,5320.1416,N,00137.2956,W,0.000,0.00,120812,,A*6A
$GPGGA,100849.000,5320.1343,N,00137.3124,W,1,0,,372.0,M,,M,,*4C
$GPRMC,100849.000,A,5320.1343,N,00137.3124,W,0.000,0.00,120812,,A*6C
$GPGGA,100904.000,5320.1334,N,00137.3215,W,1,0,,372.0,M,,M,,*45
$GPRMC,100904.000,A,5320.1334,N,00137.3215,W,0.000,0.00,120812,,A*65
$GPGGA,100919.000,5320.1308,N,00137.3336,W,1,0,,372.0,M,,M,,*46
$GPRMC,100919.000,A,5320.1308,N,00137.3336,W,0.000,0.00,120812,,A*66
$GPGGA,100934.000,5320.1281,N,00137.3475,W,1,0,,372.0,M,,M,,*49
$GPRMC,100934.000,A,5320.1281,N,00137.3475,W,0.000,0.00,120812,,A*69
$GPGGA,100950.000,5320.1194,N,00137.3614,W,1,0,,372.0,M,,M,,*49
$GPRMC,100950.000,A,5320.1194,N,00137.3614,W,0.000,0.00,120812,,A*69
$GPGGA,101005.000,5320.1123,N,00137.3758,W,1,0,,372.0,M,,M,,*44
$GPRMC,101005.000,A,5320.1123,N,00137.3758,W,0.000,0.00,120812,,A*64
$GPGGA,101020.000,5320.1102,N,00137.3816,W,1,0,,372.0,M,,M,,*45
$GPRMC,101020.000,A,5320.1102,N,00137.3816,W,0.000,0.00,120812,,A*65
$GPGGA,101036.000,5320.1064,N,00137.3852,W,1,0,,372.0,M,,M,,*43
$GPRMC,101036.000,A,5320.1064,N,00137.3852,W,0.000,0.00,120812,,A*63
$GPGGA,101052.000,5320.1031,N,00137.3918,W,1,0,,372.0,M,,M,,*4E
$GPRMC,101052.000,A,5320.1031,N,00137.3918,W,0.000,0.00,120812,,A*6E
$GPGGA,101107.000,5320.0990,N,00137.4052,W,1,0,,371.0,M,,M,,*4F
$GPRMC,101107.000,A,5320.0990,N,00137.4052,W,0.000,0.00,120812,,A*6C
$GPGGA,101122.000,5320.0967,N,00137.4107,W,1,0,,371.0,M,,M,,*41
$GPRMC,101122.000,A,5320.0967,N,00137.4107,W,0.000,0.00,120812,,A*62
$GPGGA,101137.000,5320.0924,N,00137.4244,W,1,0,,371.0,M,,M,,*46
$GPRMC,101137.000,A,5320.0924,N,00137.4244,W,0.000,0.00,120812,,A*65
$GPGGA,101152.000,5320.0878,N,00137.4337,W,1,0,,371.0,M,,M,,*48
$GPRMC,101152.000,A,5320.0878,N,00137.4337,W,0.000,0.00,120812,,A*6B
$GPGGA,101207.000,5320.0777,N,00137.4480,W,1,0,,371.0,M,,M,,*40
$GPRMC,101207.000,A,5320.0777,N,00137.4480,W,0.000,0.00,120812,,A*63
$GPGGA,101222.000,5320.0736,N,00137.4639,W,1,0,,370.0,M,,M,,*43
$GPRMC,101222.000,A,5320.0736,N,00137.4639,W,0.000,0.00,120812,,A*61
$GPGGA,101238.000,5320.0704,N,00137.4692,W,1,0,,370.0,M,,M,,*48
$GPRMC,101238.000,A,5320.0704,N,00137.4692,W,0.000,0.00,120812,,A*6A
$GPGGA,101253.000,5320.0672,N,00137.4780,W,1,0,,370.0,M,,M,,*47
$GPRMC,101253.000,A,5320.0672,N,00137.4780,W,0.000,0.00,120812,,A*65
$GPGGA,101308.000,5320.0645,N,00137.4897,W,1,0,,369.0,M,,M,,*4D
$GPRMC,101308.000,A,5320.0645,N,00137.4897,W,0.000,0.00,120812,,A*67
$GPGGA,101324.000,5320.0581,N,00137.5043,W,1,0,,369.0,M,,M,,*48
$GPRMC,101324.000,A,5320.0581,N,00137.5043,W,0.000,0.00,120812,,A*62
$GPGGA,101339.000,5320.0446,N,00137.5243,W,1,0,,368.0,M,,M,,*4D
$GPRMC,101339.000,A,5320.0446,N,00137.5243,W,0.000,0.00,120812,,A*66
$GPGGA,101354.000,5320.0404,N,00137.5307,W,1,0,,368.0,M,,M,,*41
$GPRMC,101354.000,A,5320.0404,N,00137.5307,W,0.000,0.00,120812,,A*6A
$GPGGA,101409.000,5320.0345,N,00137.5429,W,1,0,,368.0,M,,M,,*47
$GPRMC,101409.000,A,5320.0345,N,00137.5429,W,0.000,0.00,120812,,A*6C
$GPGGA,101424.000,5320.0333,N,00137.5481,W,1,0,,368.0,M,,M,,*4B
$GPRMC,101424.000,A,5320.0333,N,00137.5481,W,0.000,0.00,120812,,A*60
$GPGGA,101439.000,5320.0233,N,00137.5581,W,1,0,,367.0,M,,M,,*48
$GPRMC,101439.000,A,5320.0233,N,00137.5581,W,0.000,0.00,120812,,A*6C
$GPGGA,101455.000,5320.0194,N,00137.5763,W,1,0,,367.0,M,,M,,*42
$GPRMC,101455.000,A,5320.0194,N,00137.5763,W,0.000,0.00,120812,,A*66
$GPGGA,101511.000,5320.0201,N,00137.5857,W,1,0,,367.0,M,,M,,*44
$GPRMC,101511.000,A,5320.0201,N,00137.5857,W,0.000,0.00,120812,,A*60
$GPGGA,101526.000,5320.0116,N,00137.6034,W,1,0,,367.0,M,,M,,*4B
$GPRMC,101526.000,A,5320.0116,N,00137.6034,W,0.000,0.00,120812,,A*6F
$GPGGA,101541.000,5320.0072,N,00137.6166,W,1,0,,367.0,M,,M,,*4F
$GPRMC,101541.000,A,5320.0072,N,00137.6166,W,0.000,0.00,120812,,A*6B
$GPGGA,101556.000,5320.0061,N,00137.6341,W,1,0,,367.0,M,,M,,*4C
$GPRMC,101556.000,A,5320.0061,N,00137.6341,W,0.000,0.00,120812,,A*68
$GPGGA,101612.000,5320.0043,N,00137.6577,W,1,0,,366.0,M,,M,,*4D
$GPRMC,101612.000,A,5320.0043,N,00137.6577,W,0.000,0.00,120812,,A*68
$GPGGA,101628.000,5320.0043,N,00137.6742,W,1,0,,366.0,M,,M,,*40
$GPRMC,101628.000,A,5320.0043,N,00137.6742,W,0.000,0.00,120812,,A*65
$GPGGA,101643.000,5320.0038,N,00137.6899,W,1,0,,366.0,M,,M,,*48
$GPRMC,101643.000,A,5320.0038,N,00137.6899,W,0.000,0.00,120812,,A*6D
$GPGGA,101658.000,5320.0045,N,00137.6970,W,1,0,,366.0,M,,M,,*4E
$GPRMC,101658.000,A,5320.0045,N,00137.6970,W,0.000,0.00,120812,,A*6B
$GPGGA,101713.000,5320.0036,N,00137.7103,W,1,0,,366.0,M,,M,,*49
$GPRMC,101713.000,A,5320.0036,N,00137.7103,W,0.000,0.00,120812,,A*6C
$GPGGA,101729.000,5320.0102,N,00137.7210,W,1,0,,365.0,M,,M,,*44
$GPRMC,101729.000,A,5320.0102,N,00137.7210,W,0.000,0.00,120812,,A*62
$GPGGA,101745.000,5320.0086,N,00137.7341,W,1,0,,365.0,M,,M,,*46
$GPRMC,101745.000,A,5320.0086,N,00137.7341,W,0.000,0.00,120812,,A*60
$GPGGA,101800.000,5320.0038,N,00137.7466,W,1,0,,365.0,M,,M,,*4F
$GPRMC,101800.000,A,5320.0038,N,00137.7466,W,0.000,0.00,120812,,A*69
$GPGGA,101815.000,5319.9864,N,00137.7719,W,1,0,,364.0,M,,M,,*43
$GPRMC,101815.000,A,5319.9864,N,00137.7719,W,0.000,0.00,120812,,A*64
$GPGGA,101830.000,5319.9853,N,00137.7780,W,1,0,,364.0,M,,M,,*40
$GPRMC,101830.000,A,5319.9853,N,00137.7780,W,0.000,0.00,120812,,A*67
$GPGGA,101846.000,5319.9935,N,00137.7786,W,1,0,,364.0,M,,M,,*46
$GPRMC,101846.000,A,5319.9935,N,00137.7786,W,0.000,0.00,120812,,A*61
$GPGGA,101915.000,5320.0082,N,00137.7920,W,1,0,,364.0,M,,M,,*45
$GPRMC,101915.000,A,5320.0082,N,00137.7920,W,0.000,0.00,120812,,A*62
$GPGGA,101931.000,5320.0180,N,00137.7963,W,1,0,,363.0,M,,M,,*40
$GPRMC,101931.000,A,5320.0180,N,00137.7963,W,0.000,0.00,120812,,A*60
$GPGGA,101946.000,5320.0365,N,00137.8096,W,1,0,,363.0,M,,M,,*45
$GPRMC,101946.000,A,5320.0365,N,00137.8096,W,0.000,0.00,120812,,A*65
$GPGGA,102001.000,5320.0562,N,00137.8196,W,1,0,,363.0,M,,M,,*4C
$GPRMC,102001.000,A,5320.0562,N,00137.8196,W,0.000,0.00,120812,,A*6C
$GPGGA,102016.000,5320.0553,N,00137.8331,W,1,0,,362.0,M,,M,,*46
$GPRMC,102016.000,A,5320.0553,N,00137.8331,W,0.000,0.00,120812,,A*67
$GPGGA,102031.000,5320.0567,N,00137.8376,W,1,0,,362.0,M,,M,,*47
$GPRMC,102031.000,A,5320.0567,N,00137.8376,W,0.000,0.00,120812,,A*66
$GPGGA,102046.000,5320.0638,N,00137.8471,W,1,0,,362.0,M,,M,,*4E
$GPRMC,102046.000,A,5320.0638,N,00137.8471,W,0.000,0.00,120812,,A*6F
$GPGGA,102101.000,5320.0704,N,00137.8536,W,1,0,,361.0,M,,M,,*43
$GPRMC,102101.000,A,5320.0704,N,00137.8536,W,0.000,0.00,120812,,A*61
$GPGGA,102116.000,5320.0860,N,00137.8662,W,1,0,,361.0,M,,M,,*4A
$GPRMC,102116.000,A,5320.0860,N,00137.8662,W,0.000,0.00,120812,,A*68
$GPGGA,102134.000,5320.1011,N,00137.8807,W,1,0,,360.0,M,,M,,*49
$GPRMC,102134.000,A,5320.1011,N,00137.8807,W,0.000,0.00,120812,,A*6A
$GPGGA,102150.000,5320.1066,N,00137.8870,W,1,0,,360.0,M,,M,,*4B
$GPRMC,102150.000,A,5320.1066,N,00137.8870,W,0.000,0.00,120812,,A*68
$GPGGA,102205.000,5320.1139,N,00137.8946,W,1,0,,360.0,M,,M,,*47
$GPRMC,102205.000,A,5320.1139,N,00137.8946,W,0.000,0.00,120812,,A*64
$GPGGA,102220.000,5320.1203,N,00137.9017,W,1,0,,360.0,M,,M,,*46
$GPRMC,102220.000,A,5320.1203,N,00137.9017,W,0.000,0.00,120812,,A*65
$GPGGA,102236.000,5320.1400,N,00137.9159,W,1,0,,360.0,M,,M,,*4F
$GPRMC,102236.000,A,5320.1400,N,00137.9159,W,0.000,0.00,120812,,A*6C
$GPGGA,102251.000,5320.1478,N,00137.9227,W,1,0,,360.0,M,,M,,*4B
$GPRMC,102251.000,A,5320.1478,N,00137.9227,W,0.000,0.00,120812,,A*68
$GPGGA,102306.000,5320.1560,N,00137.9304,W,1,0,,360.0,M,,M,,*40
$GPRMC,102306.000,A,5320.1560,N,00137.9304,W,0.000,0.00,120812,,A*63
$GPGGA,102322.000,5320.1645,N,00137.9332,W,1,0,,359.0,M,,M,,*4D
$GPRMC,102322.000,A,5320.1645,N,00137.9332,W,0.000,0.00,120812,,A*64
$GPGGA,102337.000,5320.1707,N,00137.9406,W,1,0,,359.0,M,,M,,*4E
$GPRMC,102337.000,A,5320.1707,N,00137.9406,W,0.000,0.00,120812,,A*67
$GPGGA,102352.000,5320.1823,N,00137.9522,W,1,0,,359.0,M,,M,,*43
$GPRMC,102352.000,A,5320.1823,N,00137.9522,W,0.000,0.00,120812,,A*6A
$GPGGA,102407.000,5320.1929,N,00137.9573,W,1,0,,359.0,M,,M,,*4B
$GPRMC,102407.000,A,5320.1929,N,00137.9573,W,0.000,0.00,120812,,A*62
$GPGGA,102433.000,5320.2176,N,00137.9779,W,1,0,,359.0,M,,M,,*45
$GPRMC,102433.000,A,5320.2176,N,00137.9779,W,0.000,0.00,120812,,A*6C
$GPGGA,102448.000,5320.2281,N,00137.9842,W,1,0,,358.0,M,,M,,*44
$GPRMC,102448.000,A,5320.2281,N,00137.9842,W,0.000,0.00,120812,,A*6C
$GPGGA,102503.000,5320.2350,N,00137.9872,W,1,0,,358.0,M,,M,,*44
$GPRMC,102503.000,A,5320.2350,N,00137.9872,W,0.000,0.00,120812,,A*6C
$GPGGA,102518.000,5320.2405,N,00137.9893,W,1,0,,358.0,M,,M,,*46
$GPRMC,102518.000,A,5320.2405,N,00137.9893,W,0.000,0.00,120812,,A*6E
$GPGGA,102533.000,5320.2469,N,00137.9953,W,1,0,,358.0,M,,M,,*48
$GPRMC,102533.000,A,5320.2469,N,00137.9953,W,0.000,0.00,120812,,A*60
$GPGGA,102549.000,5320.2528,N,00138.0095,W,1,0,,358.0,M,,M,,*44
$GPRMC,102549.000,A,5320.2528,N,00138.0095,W,0.000,0.00,120812,,A*6C
$GPGGA,102605.000,5320.2554,N,00138.0089,W,1,0,,358.0,M,,M,,*49
$GPRMC,102605.000,A,5320.2554,N,00138.0089,W,0.000,0.00,120812,,A*61
$GPGGA,102620.000,5320.2544,N,00138.0086,W,1,0,,358.0,M,,M,,*40
$GPRMC,102620.000,A,5320.2544,N,00138.0086,W,0.000,0.00,120812,,A*68
$GPGGA,102635.000,5320.2565,N,00138.0101,W,1,0,,358.0,M,,M,,*49
$GPRMC,102635.000,A,5320.2565,N,00138.0101,W,0.000,0.00,120812,,A*61
$GPGGA,102651.000,5320.2583,N,00138.0098,W,1,0,,357.0,M,,M,,*4D
$GPRMC,102651.000,A,5320.2583,N,00138.0098,W,0.000,0.00,120812,,A*6A
$GPGGA,102706.000,5320.2581,N,00138.0083,W,1,0,,357.0,M,,M,,*46
$GPRMC,102706.000,A,5320.2581,N,00138.0083,W,0.000,0.00,120812,,A*61
$GPGGA,102721.000,5320.2567,N,00138.0075,W,1,0,,357.0,M,,M,,*42
$GPRMC,102721.000,A,5320.2567,N,00138.0075,W,0.000,0.00,120812,,A*65
$GPGGA,102736.000,5320.2572,N,00138.0072,W,1,0,,357.0,M,,M,,*47
$GPRMC,102736.000,A,5320.2572,N,00138.0072,W,0.000,0.00,120812,,A*60
$GPGGA,102751.000,5320.2583,N,00138.0079,W,1,0,,357.0,M,,M,,*43
$GPRMC,102751.000,A,5320.2583,N,00138.0079,W,0.000,0.00,120812,,A*64
$GPGGA,102807.000,5320.2563,N,00138.0100,W,1,0,,357.0,M,,M,,*4E
$GPRMC,102807.000,A,5320.2563,N,00138.0100,W,0.000,0.00,120812,,A*69
$GPGGA,102822.000,5320.2563,N,00138.0105,W,1,0,,357.0,M,,M,,*4C
$GPRMC,102822.000,A,5320.2563,N,00138.0105,W,0.000,0.00,120812,,A*6B
$GPGGA,102838.000,5320.2554,N,00138.0103,W,1,0,,358.0,M,,M,,*4A
$GPRMC,102838.000,A,5320.2554,N,00138.0103,W,0.000,0.00,120812,,A*62
$GPGGA,102853.000,5320.2517,N,00138.0177,W,1,0,,357.0,M,,M,,*4C
$GPRMC,102853.000,A,5320.2517,N,00138.0177,W,0.000,0.00,120812,,A*6B
$GPGGA,102908.000,5320.2496,N,00138.0340,W,1,0,,357.0,M,,M,,*4D
$GPRMC,102908.000,A,5320.2496,N,00138.0340,W,0.000,0.00,120812,,A*6A
$GPGGA,102923.000,5320.2487,N,00138.0414,W,1,0,,358.0,M,,M,,*4D
$GPRMC,102923.000,A,5320.2487,N,00138.0414,W,0.000,0.00,120812,,A*65
$GPGGA,102939.000,5320.2448,N,00138.0680,W,1,0,,357.0,M,,M,,*45
$GPRMC,102939.000,A,5320.2448,N,00138.0680,W,0.000,0.00,120812,,A*62
$GPGGA,102954.000,5320.2439,N,00138.0913,W,1,0,,356.0,M,,M,,*4C
$GPRMC,102954.000,A,5320.2439,N,00138.0913,W,0.000,0.00,120812,,A*6A
$GPGGA,103009.000,5320.2416,N,00138.1005,W,1,0,,356.0,M,,M,,*4E
$GPRMC,103009.000,A,5320.2416,N,00138.1005,W,0.000,0.00,120812,,A*68
$GPGGA,103025.000,5320.2398,N,00138.1248,W,1,0,,357.0,M,,M,,*4B
$GPRMC,103025.000,A,5320.2398,N,00138.1248,W,0.000,0.00,120812,,A*6C
$GPGGA,103040.000,5320.2377,N,00138.1427,W,1,0,,357.0,M,,M,,*46
$GPRMC,103040.000,A,5320.2377,N,00138.1427,W,0.000,0.00,120812,,A*61
$GPGGA,103055.000,5320.2345,N,00138.1583,W,1,0,,357.0,M,,M,,*4C
$GPRMC,103055.000,A,5320.2345,N,00138.1583,W,0.000,0.00,120812,,A*6B
$GPGGA,103110.000,5320.2327,N,00138.1755,W,1,0,,356.0,M,,M,,*40
$GPRMC,103110.000,A,5320.2327,N,00138.1755,W,0.000,0.00,120812,,A*66
$GPGGA,103125.000,5320.2325,N,00138.1958,W,1,0,,356.0,M,,M,,*47
$GPRMC,103125.000,A,5320.2325,N,00138.1958,W,0.000,0.00,120812,,A*61
$GPGGA,103141.000,5320.2316,N,00138.2103,W,1,0,,356.0,M,,M,,*40
$GPRMC,103141.000,A,5320.2316,N,00138.2103,W,0.000,0.00,120812,,A*66
$GPGGA,103156.000,5320.2286,N,00138.2280,W,1,0,,356.0,M,,M,,*46
$GPRMC,103156.000,A,5320.2286,N,00138.2280,W,0.000,0.00,120812,,A*60
$GPGGA,103211.000,5320.2233,N,00138.2452,W,1,0,,356.0,M,,M,,*41
$GPRMC,103211.000,A,5320.2233,N,00138.2452,W,0.000,0.00,120812,,A*67
$GPGGA,103227.000,5320.2380,N,00138.2575,W,1,0,,355.0,M,,M,,*4A
$GPRMC,103227.000,A,5320.2380,N,00138.2575,W,0.000,0.00,120812,,A*6F
$GPGGA,103242.000,5320.2439,N,00138.2635,W,1,0,,354.0,M,,M,,*4A
$GPRMC,103242.000,A,5320.2439,N,00138.2635,W,0.000,0.00,120812,,A*6E
$GPGGA,103257.000,5320.2533,N,00138.2709,W,1,0,,354.0,M,,M,,*4B
$GPRMC,103257.000,A,5320.2533,N,00138.2709,W,0.000,0.00,120812,,A*6F
$GPGGA,103314.000,5320.2705,N,00138.2820,W,1,0,,353.0,M,,M,,*49
$GPRMC,103314.000,A,5320.2705,N,00138.2820,W,0.000,0.00,120812,,A*6A
$GPGGA,103329.000,5320.2721,N,00138.2867,W,1,0,,353.0,M,,M,,*42
$GPRMC,103329.000,A,5320.2721,N,00138.2867,W,0.000,0.00,120812,,A*61
$GPGGA,103344.000,5320.2746,N,00138.2892,W,1,0,,354.0,M,,M,,*45
$GPRMC,103344.000,A,5320.2746,N,00138.2892,W,0.000,0.00,120812,,A*61
$GPGGA,103400.000,5320.2739,N,00138.2908,W,1,0,,354.0,M,,M,,*48
$GPRMC,103400.000,A,5320.2739,N,00138.2908,W,0.000,0.00,120812,,A*6C
$GPGGA,103415.000,5320.2728,N,00138.2895,W,1,0,,354.0,M,,M,,*49
$GPRMC,103415.000,A,5320.2728,N,00138.2895,W,0.000,0.00,120812,,A*6D
$GPGGA,103430.000,5320.2725,N,00138.2924,W,1,0,,354.0,M,,M,,*48
$GPRMC,103430.000,A,5320.2725,N,00138.2924,W,0.000,0.00,120812,,A*6C
$GPGGA,103445.000,5320.2721,N,00138.2953,W,1,0,,354.0,M,,M,,*4E
$GPRMC,103445.000,A,5320.2721,N,00138.2953,W,0.000,0.00,120812,,A*6A
$GPGGA,103501.000,5320.2686,N,00138.3040,W,1,0,,353.0,M,,M,,*4E
$GPRMC,103501.000,A,5320.2686,N,00138.3040,W,0.000,0.00,120812,,A*6D
$GPGGA,103516.000,5320.2627,N,00138.3167,W,1,0,,353.0,M,,M,,*47
$GPRMC,103516.000,A,5320.2627,N,00138.3167,W,0.000,0.00,120812,,A*64
$GPGGA,103531.000,5320.2615,N,00138.3241,W,1,0,,352.0,M,,M,,*45
$GPRMC,103531.000,A,5320.2615,N,00138.3241,W,0.000,0.00,120812,,A*67
$GPGGA,103547.000,5320.2599,N,00138.3375,W,1,0,,352.0,M,,M,,*45
$GPRMC,103547.000,A,5320.2599,N,00138.3375,W,0.000,0.00,120812,,A*67
$GPGGA,103602.000,5320.2556,N,00138.3434,W,1,0,,352.0,M,,M,,*46
$GPRMC,103602.000,A,5320.2556,N,00138.3434,W,0.000,0.00,120812,,A*64
$GPGGA,103618.000,5320.2538,N,00138.3530,W,1,0,,351.0,M,,M,,*43
$GPRMC,103618.000,A,5320.2538,N,00138.3530,W,0.000,0.00,120812,,A*62
$GPGGA,103633.000,5320.2515,N,00138.3612,W,1,0,,351.0,M,,M,,*46
$GPRMC,103633.000,A,5320.2515,N,00138.3612,W,0.000,0.00,120812,,A*67
$GPGGA,103648.000,5320.2457,N,00138.3701,W,1,0,,350.0,M,,M,,*4F
$GPRMC,103648.000,A,5320.2457,N,00138.3701,W,0.000,0.00,120812,,A*6F
$GPGGA,103703.000,5320.2380,N,00138.3816,W,1,0,,350.0,M,,M,,*45
$GPRMC,103703.000,A,5320.2380,N,00138.3816,W,0.000,0.00,120812,,A*65
$GPGGA,103718.000,5320.2377,N,00138.3932,W,1,0,,349.0,M,,M,,*48
$GPRMC,103718.000,A,5320.2377,N,00138.3932,W,0.000,0.00,120812,,A*60
$GPGGA,103734.000,5320.2375,N,00138.4041,W,1,0,,349.0,M,,M,,*4E
$GPRMC,103734.000,A,5320.2375,N,00138.4041,W,0.000,0.00,120812,,A*66
$GPGGA,103749.000,5320.2338,N,00138.4154,W,1,0,,348.0,M,,M,,*49
$GPRMC,103749.000,A,5320.2338,N,00138.4154,W,0.000,0.00,120812,,A*60
$GPGGA,103804.000,5320.2213,N,00138.4324,W,1,0,,348.0,M,,M,,*42
$GPRMC,103804.000,A,5320.2213,N,00138.4324,W,0.000,0.00,120812,,A*6B
$GPGGA,103819.000,5320.2231,N,00138.4398,W,1,0,,347.0,M,,M,,*46
$GPRMC,103819.000,A,5320.2231,N,00138.4398,W,0.000,0.00,120812,,A*60
$GPGGA,103834.000,5320.2215,N,00138.4470,W,1,0,,346.0,M,,M,,*4F
$GPRMC,103834.000,A,5320.2215,N,00138.4470,W,0.000,0.00,120812,,A*68
$GPGGA,103850.000,5320.2167,N,00138.4528,W,1,0,,346.0,M,,M,,*47
$GPRMC,103850.000,A,5320.2167,N,00138.4528,W,0.000,0.00,120812,,A*60
$GPGGA,103905.000,5320.2116,N,00138.4479,W,1,0,,346.0,M,,M,,*45
$GPRMC,103905.000,A,5320.2116,N,00138.4479,W,0.000,0.00,120812,,A*62
$GPGGA,103922.000,5320.2057,N,00138.4593,W,1,0,,345.0,M,,M,,*42
$GPRMC,103922.000,A,5320.2057,N,00138.4593,W,0.000,0.00,120812,,A*66
$GPGGA,103938.000,5320.2039,N,00138.4686,W,1,0,,345.0,M,,M,,*46
$GPRMC,103938.000,A,5320.2039,N,00138.4686,W,0.000,0.00,120812,,A*62
$GPGGA,103953.000,5320.1952,N,00138.4794,W,1,0,,345.0,M,,M,,*4E
$GPRMC,103953.000,A,5320.1952,N,00138.4794,W,0.000,0.00,120812,,A*6A
$GPGGA,104008.000,5320.1849,N,00138.4907,W,1,0,,345.0,M,,M,,*41
$GPRMC,104008.000,A,5320.1849,N,00138.4907,W,0.000,0.00,120812,,A*65
$GPGGA,104024.000,5320.1842,N,00138.4740,W,1,0,,344.0,M,,M,,*48
$GPRMC,104024.000,A,5320.1842,N,00138.4740,W,0.000,0.00,120812,,A*6D
$GPGGA,104039.000,5320.1716,N,00138.4774,W,1,0,,344.0,M,,M,,*4D
$GPRMC,104039.000,A,5320.1716,N,00138.4774,W,0.000,0.00,120812,,A*68
$GPGGA,104055.000,5320.1576,N,00138.4894,W,1,0,,344.0,M,,M,,*42
$GPRMC,104055.000,A,5320.1576,N,00138.4894,W,0.000,0.00,120812,,A*67
$GPGGA,104111.000,5320.1556,N,00138.4920,W,1,0,,344.0,M,,M,,*4F
$GPRMC,104111.000,A,5320.1556,N,00138.4920,W,0.000,0.00,120812,,A*6A
$GPGGA,104126.000,5320.1462,N,00138.5026,W,1,0,,344.0,M,,M,,*43
$GPRMC,104126.000,A,5320.1462,N,00138.5026,W,0.000,0.00,120812,,A*66
$GPGGA,104141.000,5320.1363,N,00138.5015,W,1,0,,343.0,M,,M,,*43
$GPRMC,104141.000,A,5320.1363,N,00138.5015,W,0.000,0.00,120812,,A*61
$GPGGA,104156.000,5320.1274,N,00138.5010,W,1,0,,343.0,M,,M,,*47
$GPRMC,104156.000,A,5320.1274,N,00138.5010,W,0.000,0.00,120812,,A*65
$GPGGA,104211.000,5320.1176,N,00138.5084,W,1,0,,342.0,M,,M,,*4A
$GPRMC,104211.000,A,5320.1176,N,00138.5084,W,0.000,0.00,120812,,A*69
$GPGGA,104226.000,5320.1025,N,00138.5207,W,1,0,,342.0,M,,M,,*40
$GPRMC,104226.000,A,5320.1025,N,00138.5207,W,0.000,0.00,120812,,A*63
$GPGGA,104241.000,5320.1059,N,00138.5221,W,1,0,,341.0,M,,M,,*4D
$GPRMC,104241.000,A,5320.1059,N,00138.5221,W,0.000,0.00,120812,,A*6D
$GPGGA,104256.000,5320.0942,N,00138.5303,W,1,0,,341.0,M,,M,,*48
$GPRMC,104256.000,A,5320.0942,N,00138.5303,W,0.000,0.00,120812,,A*68
$GPGGA,104312.000,5320.0887,N,00138.5397,W,1,0,,341.0,M,,M,,*4C
$GPRMC,104312.000,A,5320.0887,N,00138.5397,W,0.000,0.00,120812,,A*6C
$GPGGA,104327.000,5320.0846,N,00138.5521,W,1,0,,341.0,M,,M,,*4C
$GPRMC,104327.000,A,5320.0846,N,00138.5521,W,0.000,0.00,120812,,A*6C
$GPGGA,104342.000,5320.0842,N,00138.5679,W,1,0,,341.0,M,,M,,*45
$GPRMC,104342.000,A,5320.0842,N,00138.5679,W,0.000,0.00,120812,,A*65
$GPGGA,104357.000,5320.0748,N,00138.5703,W,1,0,,341.0,M,,M,,*48
$GPRMC,104357.000,A,5320.0748,N,00138.5703,W,0.000,0.00,120812,,A*68
$GPGGA,104413.000,5320.0741,N,00138.6041,W,1,0,,340.0,M,,M,,*45
$GPRMC,104413.000,A,5320.0741,N,00138.6041,W,0.000,0.00,120812,,A*64
$GPGGA,104429.000,5320.0565,N,00138.6050,W,1,0,,340.0,M,,M,,*48
$GPRMC,104429.000,A,5320.0565,N,00138.6050,W,0.000,0.00,120812,,A*69
$GPGGA,104445.000,5320.0587,N,00138.6159,W,1,0,,340.0,M,,M,,*46
$GPRMC,104445.000,A,5320.0587,N,00138.6159,W,0.000,0.00,120812,,A*67
$GPGGA,104500.000,5320.0782,N,00138.6389,W,1,0,,340.0,M,,M,,*4E
$GPRMC,104500.000,A,5320.0782,N,00138.6389,W,0.000,0.00,120812,,A*6F
$GPGGA,104515.000,5320.0782,N,00138.6620,W,1,0,,339.0,M,,M,,*42
$GPRMC,104515.000,A,5320.0782,N,00138.6620,W,0.000,0.00,120812,,A*6D
$GPGGA,104532.000,5320.0926,N,00138.6229,W,1,0,,339.0,M,,M,,*4A
$GPRMC,104532.000,A,5320.0926,N,00138.6229,W,0.000,0.00,120812,,A*65
$GPGGA,104548.000,5320.1082,N,00138.6791,W,1,0,,340.0,M,,M,,*49
$GPRMC,104548.000,A,5320.1082,N,00138.6791,W,0.000,0.00,120812,,A*68
$GPGGA,104603.000,5320.1137,N,00138.6836,W,1,0,,339.0,M,,M,,*46
$GPRMC,104603.000,A,5320.1137,N,00138.6836,W,0.000,0.00,120812,,A*69
$GPGGA,104633.000,5320.1247,N,00138.7294,W,1,0,,339.0,M,,M,,*42
$GPRMC,104633.000,A,5320.1247,N,00138.7294,W,0.000,0.00,120812,,A*6D
$GPGGA,104648.000,5320.1235,N,00138.7371,W,1,0,,339.0,M,,M,,*41
$GPRMC,104648.000,A,5320.1235,N,00138.7371,W,0.000,0.00,120812,,A*6E
$GPGGA,104704.000,5320.1407,N,00138.7415,W,1,0,,339.0,M,,M,,*4A
$GPRMC,104704.000,A,5320.1407,N,00138.7415,W,0.000,0.00,120812,,A*65
$GPGGA,104719.000,5320.1370,N,00138.7522,W,1,0,,339.0,M,,M,,*44
$GPRMC,104719.000,A,5320.1370,N,00138.7522,W,0.000,0.00,120812,,A*6B
$GPGGA,104737.000,5320.1427,N,00138.7647,W,1,0,,340.0,M,,M,,*43
$GPRMC,104737.000,A,5320.1427,N,00138.7647,W,0.000,0.00,120812,,A*62
$GPGGA,104752.000,5320.1352,N,00138.7923,W,1,0,,340.0,M,,M,,*48
$GPRMC,104752.000,A,5320.1352,N,00138.7923,W,0.000,0.00,120812,,A*69
$GPGGA,104807.000,5320.1308,N,00138.7984,W,1,0,,339.0,M,,M,,*4B
$GPRMC,104807.000,A,5320.1308,N,00138.7984,W,0.000,0.00,120812,,A*64
$GPGGA,104822.000,5320.1247,N,00138.8079,W,1,0,,339.0,M,,M,,*42
$GPRMC,104822.000,A,5320.1247,N,00138.8079,W,0.000,0.00,120812,,A*6D
$GPGGA,104840.000,5320.1208,N,00138.8274,W,1,0,,339.0,M,,M,,*42
$GPRMC,104840.000,A,5320.1208,N,00138.8274,W,0.000,0.00,120812,,A*6D
$GPGGA,104908.000,5320.1100,N,00138.8265,W,1,0,,338.0,M,,M,,*45
$GPRMC,104908.000,A,5320.1100,N,00138.8265,W,0.000,0.00,120812,,A*6B
$GPGGA,104925.000,5320.1057,N,00138.8576,W,1,0,,338.0,M,,M,,*4C
$GPRMC,104925.000,A,5320.1057,N,00138.8576,W,0.000,0.00,120812,,A*62
$GPGGA,104941.000,5320.0645,N,00138.8539,W,1,0,,338.0,M,,M,,*41
$GPRMC,104941.000,A,5320.0645,N,00138.8539,W,0.000,0.00,120812,,A*6F
$GPGGA,104956.000,5319.9443,N,00138.8889,W,1,0,,338.0,M,,M,,*46
$GPRMC,104956.000,A,5319.9443,N,00138.8889,W,0.000,0.00,120812,,A*68
$GPGGA,105011.000,5319.9443,N,00138.8930,W,1,0,,338.0,M,,M,,*4E
$GPRMC,105011.000,A,5319.9443,N,00138.8930,W,0.000,0.00,120812,,A*60
$GPGGA,105026.000,5319.9335,N,00138.9129,W,1,0,,338.0,M,,M,,*4D
$GPRMC,105026.000,A,5319.9335,N,00138.9129,W,0.000,0.00,120812,,A*63
$GPGGA,105041.000,5319.9276,N,00138.9208,W,1,0,,338.0,M,,M,,*4A
$GPRMC,105041.000,A,5319.9276,N,00138.9208,W,0.000,0.00,120812,,A*64
$GPGGA,105056.000,5319.9216,N,00138.9310,W,1,0,,338.0,M,,M,,*42
$GPRMC,105056.000,A,5319.9216,N,00138.9310,W,0.000,0.00,120812,,A*6C
$GPGGA,105112.000,5319.9251,N,00138.9428,W,1,0,,338.0,M,,M,,*4C
$GPRMC,105112.000,A,5319.9251,N,00138.9428,W,0.000,0.00,120812,,A*62
$GPGGA,105128.000,5319.9349,N,00138.9602,W,1,0,,337.0,M,,M,,*48
$GPRMC,105128.000,A,5319.9349,N,00138.9602,W,0.000,0.00,120812,,A*69
$GPGGA,105143.000,5319.9432,N,00138.9871,W,1,0,,337.0,M,,M,,*44
$GPRMC,105143.000,A,5319.9432,N,00138.9871,W,0.000,0.00,120812,,A*65
$GPGGA,105158.000,5319.9418,N,00138.9873,W,1,0,,337.0,M,,M,,*44
$GPRMC,105158.000,A,5319.9418,N,00138.9873,W,0.000,0.00,120812,,A*65
$GPGGA,105214.000,5319.9400,N,00138.9931,W,1,0,,337.0,M,,M,,*41
$GPRMC,105214.000,A,5319.9400,N,00138.9931,W,0.000,0.00,120812,,A*60
$GPGGA,105229.000,5319.9429,N,00139.0010,W,1,0,,337.0,M,,M,,*46
$GPRMC,105229.000,A,5319.9429,N,00139.0010,W,0.000,0.00,120812,,A*67
$GPGGA,105244.000,5319.9425,N,00139.0103,W,1,0,,336.0,M,,M,,*43
$GPRMC,105244.000,A,5319.9425,N,00139.0103,W,0.000,0.00,120812,,A*63
$GPGGA,105259.000,5319.9587,N,00139.0226,W,1,0,,336.0,M,,M,,*42
$GPRMC,105259.000,A,5319.9587,N,00139.0226,W,0.000,0.00,120812,,A*62
$GPGGA,105315.000,5319.9482,N,00139.0061,W,1,0,,336.0,M,,M,,*4E
$GPRMC,105315.000,A,5319.9482,N,00139.0061,W,0.000,0.00,120812,,A*6E
$GPGGA,105330.000,5319.9484,N,00138.9720,W,1,0,,335.0,M,,M,,*46
$GPRMC,105330.000,A,5319.9484,N,00138.9720,W,0.000,0.00,120812,,A*65
$GPGGA,105345.000,5319.9553,N,00138.9713,W,1,0,,335.0,M,,M,,*4F
$GPRMC,105345.000,A,5319.9553,N,00138.9713,W,0.000,0.00,120812,,A*6C
$GPGGA,105401.000,5319.9564,N,00138.9876,W,1,0,,335.0,M,,M,,*40
$GPRMC,105401.000,A,5319.9564,N,00138.9876,W,0.000,0.00,120812,,A*63
$GPGGA,105416.000,5319.9377,N,00139.0202,W,1,0,,335.0,M,,M,,*43
$GPRMC,105416.000,A,5319.9377,N,00139.0202,W,0.000,0.00,120812,,A*60
$GPGGA,105431.000,5319.9175,N,00139.0393,W,1,0,,334.0,M,,M,,*4E
$GPRMC,105431.000,A,5319.9175,N,00139.0393,W,0.000,0.00,120812,,A*6C
$GPGGA,105446.000,5319.9127,N,00139.0563,W,1,0,,334.0,M,,M,,*40
$GPRMC,105446.000,A,5319.9127,N,00139.0563,W,0.000,0.00,120812,,A*62
$GPGGA,105501.000,5319.8958,N,00139.0783,W,1,0,,334.0,M,,M,,*4F
$GPRMC,105501.000,A,5319.8958,N,00139.0783,W,0.000,0.00,120812,,A*6D
$GPGGA,105517.000,5319.8992,N,00139.0830,W,1,0,,334.0,M,,M,,*49
$GPRMC,105517.000,A,5319.8992,N,00139.0830,W,0.000,0.00,120812,,A*6B
$GPGGA,105532.000,5319.9054,N,00139.1063,W,1,0,,333.0,M,,M,,*44
$GPRMC,105532.000,A,5319.9054,N,00139.1063,W,0.000,0.00,120812,,A*61
$GPGGA,105547.000,5319.8921,N,00139.1203,W,1,0,,333.0,M,,M,,*48
$GPRMC,105547.000,A,5319.8921,N,00139.1203,W,0.000,0.00,120812,,A*6D
$GPGGA,105603.000,5319.8953,N,00139.1309,W,1,0,,333.0,M,,M,,*45
$GPRMC,105603.000,A,5319.8953,N,00139.1309,W,0.000,0.00,120812,,A*60
$GPGGA,105620.000,5319.9013,N,00139.1589,W,1,0,,333.0,M,,M,,*46
$GPRMC,105620.000,A,5319.9013,N,00139.1589,W,0.000,0.00,120812,,A*63
$GPGGA,105635.000,5319.8901,N,00139.1710,W,1,0,,333.0,M,,M,,*4B
$GPRMC,105635.000,A,5319.8901,N,00139.1710,W,0.000,0.00,120812,,A*6E
$GPGGA,105650.000,5319.8853,N,00139.1823,W,1,0,,333.0,M,,M,,*41
$GPRMC,105650.000,A,5319.8853,N,00139.1823,W,0.000,0.00,120812,,A*64
$GPGGA,105705.000,5319.8674,N,00139.1656,W,1,0,,332.0,M,,M,,*46
$GPRMC,105705.000,A,5319.8674,N,00139.1656,W,0.000,0.00,120812,,A*62
$GPGGA,105720.000,5319.8676,N,00139.1758,W,1,0,,332.0,M,,M,,*4C
$GPRMC,105720.000,A,5319.8676,N,00139.1758,W,0.000,0.00,120812,,A*68
$GPGGA,105736.000,5319.8651,N,00139.1789,W,1,0,,331.0,M,,M,,*41
$GPRMC,105736.000,A,5319.8651,N,00139.1789,W,0.000,0.00,120812,,A*66
$GPGGA,105751.000,5319.8669,N,00139.1891,W,1,0,,331.0,M,,M,,*4D
$GPRMC,105751.000,A,5319.8669,N,00139.1891,W,0.000,0.00,120812,,A*6A
$GPGGA,105806.000,5319.8571,N,00139.1752,W,1,0,,331.0,M,,M,,*4A
$GPRMC,105806.000,A,5319.8571,N,00139.1752,W,0.000,0.00,120812,,A*6D
$GPGGA,105822.000,5319.8560,N,00139.1732,W,1,0,,330.0,M,,M,,*4B
$GPRMC,105822.000,A,5319.8560,N,00139.1732,W,0.000,0.00,120812,,A*6D
$GPGGA,105837.000,5319.8429,N,00139.1688,W,1,0,,330.0,M,,M,,*43
$GPRMC,105837.000,A,5319.8429,N,00139.1688,W,0.000,0.00,120812,,A*65
$GPGGA,105855.000,5319.7582,N,00139.1876,W,1,0,,329.0,M,,M,,*4F
$GPRMC,105855.000,A,5319.7582,N,00139.1876,W,0.000,0.00,120812,,A*61
$GPGGA,105910.000,5319.8278,N,00139.2056,W,1,0,,329.0,M,,M,,*4B
$GPRMC,105910.000,A,5319.8278,N,00139.2056,W,0.000,0.00,120812,,A*65
$GPGGA,105925.000,5319.8264,N,00139.2126,W,1,0,,329.0,M,,M,,*46
$GPRMC,105925.000,A,5319.8264,N,00139.2126,W,0.000,0.00,120812,,A*68
$GPGGA,105940.000,5319.8200,N,00139.2303,W,1,0,,329.0,M,,M,,*42
$GPRMC,105940.000,A,5319.8200,N,00139.2303,W,0.000,0.00,120812,,A*6C
$GPGGA,105955.000,5319.8125,N,00139.2408,W,1,0,,328.0,M,,M,,*4F
$GPRMC,105955.000,A,5319.8125,N,00139.2408,W,0.000,0.00,120812,,A*60
$GPGGA,110011.000,5319.8045,N,00139.2505,W,1,0,,327.0,M,,M,,*46
$GPRMC,110011.000,A,5319.8045,N,00139.2505,W,0.000,0.00,120812,,A*66
$GPGGA,110026.000,5319.7937,N,00139.2753,W,1,0,,327.0,M,,M,,*40
$GPRMC,110026.000,A,5319.7937,N,00139.2753,W,0.000,0.00,120812,,A*60
$GPGGA,110041.000,5319.7843,N,00139.2806,W,1,0,,326.0,M,,M,,*4D
$GPRMC,110041.000,A,5319.7843,N,00139.2806,W,0.000,0.00,120812,,A*6C
$GPGGA,110056.000,5319.7674,N,00139.2629,W,1,0,,326.0,M,,M,,*42
$GPRMC,110056.000,A,5319.7674,N,00139.2629,W,0.000,0.00,120812,,A*63
$GPGGA,110111.000,5319.7868,N,00139.2115,W,1,0,,325.0,M,,M,,*48
$GPRMC,110111.000,A,5319.7868,N,00139.2115,W,0.000,0.00,120812,,A*6A
$GPGGA,110127.000,5319.7861,N,00139.2053,W,1,0,,325.0,M,,M,,*47
$GPRMC,110127.000,A,5319.7861,N,00139.2053,W,0.000,0.00,120812,,A*65
$GPGGA,110142.000,5319.7953,N,00139.1902,W,1,0,,325.0,M,,M,,*4A
$GPRMC,110142.000,A,5319.7953,N,00139.1902,W,0.000,0.00,120812,,A*68
$GPGGA,110157.000,5319.7923,N,00139.1799,W,1,0,,325.0,M,,M,,*45
$GPRMC,110157.000,A,5319.7923,N,00139.1799,W,0.000,0.00,120812,,A*67
$GPGGA,110213.000,5319.7955,N,00139.1813,W,1,0,,324.0,M,,M,,*4B
$GPRMC,110213.000,A,5319.7955,N,00139.1813,W,0.000,0.00,120812,,A*68
$GPGGA,110259.000,5319.8047,N,00139.1848,W,1,0,,324.0,M,,M,,*4E
$GPRMC,110259.000,A,5319.8047,N,00139.1848,W,0.000,0.00,120812,,A*6D
$GPGGA,110336.000,5319.7834,N,00139.1660,W,1,0,,324.0,M,,M,,*41
$GPRMC,110336.000,A,5319.7834,N,00139.1660,W,0.000,0.00,120812,,A*62
$GPGGA,110401.000,5319.8061,N,00139.1866,W,1,0,,324.0,M,,M,,*4D
$GPRMC,110401.000,A,5319.8061,N,00139.1866,W,0.000,0.00,120812,,A*6E
$GPGGA,110424.000,5319.8045,N,00139.1842,W,1,0,,324.0,M,,M,,*4A
$GPRMC,110424.000,A,5319.8045,N,00139.1842,W,0.000,0.00,120812,,A*69
$GPGGA,110441.000,5319.8035,N,00139.1741,W,1,0,,324.0,M,,M,,*42
$GPRMC,110441.000,A,5319.8035,N,00139.1741,W,0.000,0.00,120812,,A*61
$GPGGA,110501.000,5319.8008,N,00139.1781,W,1,0,,324.0,M,,M,,*45
$GPRMC,110501.000,A,5319.8008,N,00139.1781,W,0.000,0.00,120812,,A*66
$GPGGA,110522.000,5319.7841,N,00139.1928,W,1,0,,324.0,M,,M,,*43
$GPRMC,110522.000,A,5319.7841,N,00139.1928,W,0.000,0.00,120812,,A*60
$GPGGA,110546.000,5319.7459,N,00139.2236,W,1,0,,324.0,M,,M,,*43
$GPRMC,110546.000,A,5319.7459,N,00139.2236,W,0.000,0.00,120812,,A*60
$GPGGA,110622.000,5319.8088,N,00139.1797,W,1,0,,324.0,M,,M,,*48
$GPRMC,110622.000,A,5319.8088,N,00139.1797,W,0.000,0.00,120812,,A*6B
$GPGGA,110708.000,5319.8022,N,00139.2508,W,1,0,,324.0,M,,M,,*46
$GPRMC,110708.000,A,5319.8022,N,00139.2508,W,0.000,0.00,120812,,A*65
$GPGGA,110853.000,5319.7910,N,00139.2633,W,1,0,,324.0,M,,M,,*4B
$GPRMC,110853.000,A,5319.7910,N,00139.2633,W,0.000,0.00,120812,,A*68
$GPGGA,110952.000,5319.8097,N,00139.1595,W,1,0,,324.0,M,,M,,*4E
$GPRMC,110952.000,A,5319.8097,N,00139.1595,W,0.000,0.00,120812,,A*6D
$GPGGA,111015.000,5319.8026,N,00139.1639,W,1,0,,324.0,M,,M,,*4A
$GPRMC,111015.000,A,5319.8026,N,00139.1639,W,0.000,0.00,120812,,A*69
$GPGGA,111045.000,5319.7926,N,00139.1601,W,1,0,,324.0,M,,M,,*42
$GPRMC,111045.000,A,5319.7926,N,00139.1601,W,0.000,0.00,120812,,A*61
$GPGGA,111129.000,5319.8035,N,00139.2192,W,1,0,,324.0,M,,M,,*43
$GPRMC,111129.000,A,5319.8035,N,00139.2192,W,0.000,0.00,120812,,A*60
$GPGGA,111204.000,5319.8191,N,00139.2183,W,1,0,,324.0,M,,M,,*40
$GPRMC,111204.000,A,5319.8191,N,00139.2183,W,0.000,0.00,120812,,A*63
$GPGGA,111230.000,5319.8289,N,00139.2298,W,1,0,,324.0,M,,M,,*44
$GPRMC,111230.000,A,5319.8289,N,00139.2298,W,0.000,0.00,120812,,A*67
$GPGGA,111302.000,5319.8241,N,00139.2188,W,1,0,,324.0,M,,M,,*42
$GPRMC,111302.000,A,5319.8241,N,00139.2188,W,0.000,0.00,120812,,A*61
$GPGGA,112318.000,5319.8452,N,00139.2258,W,1,0,,158.0,M,,M,,*49
$GPRMC,112318.000,A,5319.8452,N,00139.2258,W,0.000,0.00,120812,,A*63
$GPGGA,112354.000,5319.8443,N,00139.2194,W,1,0,,158.0,M,,M,,*42
$GPRMC,112354.000,A,5319.8443,N,00139.2194,W,0.000,0.00,120812,,A*68
$GPGGA,112420.000,5319.8443,N,00139.2204,W,1,0,,158.0,M,,M,,*4C
$GPRMC,112420.000,A,5319.8443,N,00139.2204,W,0.000,0.00,120812,,A*66
$GPGGA,112508.000,5319.8388,N,00139.2167,W,1,0,,158.0,M,,M,,*41
$GPRMC,112508.000,A,5319.8388,N,00139.2167,W,0.000,0.00,120812,,A*6B
$GPGGA,112538.000,5319.8457,N,00139.1877,W,1,0,,158.0,M,,M,,*4C
