@Sonygps/ver3.0/wgs-84/

$GPGGA,094627.000,3723.1622,N,00559.5788,W,1,0,,30.0,M,,M,,*7A
$GPRMC,094627.000,A,3723.1622,N,00559.5788,W,0.000,0.00,150914,,A*6F
$GPGGA,094642.000,3723.1622,N,00559.5717,W,1,0,,38.0,M,,M,,*77
$GPRMC,094642.000,A,3723.1622,N,00559.5717,W,0.000,0.00,150914,,A*6A
$GPGGA,094657.000,3723.1596,N,00559.5690,W,1,0,,30.0,M,,M,,*79
$GPRMC,094657.000,A,3723.1596,N,00559.5690,W,0.000,0.00,150914,,A*6C
$GPGGA,094712.000,3723.1617,N,00559.5838,W,1,0,,28.0,M,,M,,*76
$GPRMC,094712.000,A,3723.1617,N,00559.5838,W,0.000,0.00,150914,,A*6A
$GPGGA,094951.000,3723.1745,N,00559.5797,W,1,0,,38.0,M,,M,,*72
$GPRMC,094951.000,A,3723.1745,N,00559.5797,W,0.000,0.00,150914,,A*6F
$GPGGA,100046.000,3723.1709,N,00559.5515,W,1,0,,13.0,M,,M,,*78
$GPRMC,100046.000,A,3723.1709,N,00559.5515,W,0.000,0.00,150914,,A*6C
$GPGGA,100101.000,3723.1741,N,00559.5624,W,1,0,,17.0,M,,M,,*73
$GPRMC,100101.000,A,3723.1741,N,00559.5624,W,0.000,0.00,150914,,A*63
$GPGGA,100116.000,3723.1805,N,00559.5680,W,1,0,,32.0,M,,M,,*73
$GPRMC,100116.000,A,3723.1805,N,00559.5680,W,0.000,0.00,150914,,A*64
$GPGGA,100131.000,3723.1766,N,00559.5688,W,1,0,,36.0,M,,M,,*70
$GPRMC,100131.000,A,3723.1766,N,00559.5688,W,0.000,0.00,150914,,A*63
$GPGGA,100146.000,3723.1727,N,00559.5754,W,1,0,,37.0,M,,M,,*74
$GPRMC,100146.000,A,3723.1727,N,00559.5754,W,0.000,0.00,150914,,A*66
$GPGGA,100210.000,3723.1656,N,00559.6023,W,1,0,,33.0,M,,M,,*73
$GPRMC,100210.000,A,3723.1656,N,00559.6023,W,0.000,0.00,150914,,A*65
$GPGGA,100238.000,3723.1722,N,00559.5739,W,1,0,,32.0,M,,M,,*75
$GPRMC,100238.000,A,3723.1722,N,00559.5739,W,0.000,0.00,150914,,A*62
$GPGGA,100304.000,3723.1786,N,00559.5582,W,1,0,,32.0,M,,M,,*77
$GPRMC,100304.000,A,3723.1786,N,00559.5582,W,0.000,0.00,150914,,A*60
$GPGGA,102910.000,3723.1821,N,00559.6001,W,1,0,,23.0,M,,M,,*75
$GPRMC,102910.000,A,3723.1821,N,00559.6001,W,0.000,0.00,150914,,A*62
$GPGGA,102927.000,3723.1802,N,00559.5992,W,1,0,,13.0,M,,M,,*73
$GPRMC,102927.000,A,3723.1802,N,00559.5992,W,0.000,0.00,150914,,A*67
$GPGGA,102942.000,3723.1821,N,00559.5987,W,1,0,,13.0,M,,M,,*75
$GPRMC,102942.000,A,3723.1821,N,00559.5987,W,0.000,0.00,150914,,A*61
$GPGGA,102957.000,3723.1802,N,00559.5993,W,1,0,,13.0,M,,M,,*75
$GPRMC,102957.000,A,3723.1802,N,00559.5993,W,0.000,0.00,150914,,A*61
$GPGGA,103013.000,3723.1761,N,00559.5954,W,1,0,,13.0,M,,M,,*7C
$GPRMC,103013.000,A,3723.1761,N,00559.5954,W,0.000,0.00,150914,,A*68
$GPGGA,103029.000,3723.1775,N,00559.5966,W,1,0,,13.0,M,,M,,*71
$GPRMC,103029.000,A,3723.1775,N,00559.5966,W,0.000,0.00,150914,,A*65
$GPGGA,103121.000,3723.1912,N,00559.5971,W,1,0,,13.0,M,,M,,*71
$GPRMC,103121.000,A,3723.1912,N,00559.5971,W,0.000,0.00,150914,,A*65
$GPGGA,103140.000,3723.1985,N,00559.6102,W,1,0,,13.0,M,,M,,*77
$GPRMC,103140.000,A,3723.1985,N,00559.6102,W,0.000,0.00,150914,,A*63
$GPGGA,103155.000,3723.2013,N,00559.6149,W,1,0,,13.0,M,,M,,*79
$GPRMC,103155.000,A,3723.2013,N,00559.6149,W,0.000,0.00,150914,,A*6D
$GPGGA,103210.000,3723.2050,N,00559.6241,W,1,0,,13.0,M,,M,,*77
$GPRMC,103210.000,A,3723.2050,N,00559.6241,W,0.000,0.00,150914,,A*63
$GPGGA,103225.000,3723.2047,N,00559.6341,W,1,0,,13.0,M,,M,,*76
$GPRMC,103225.000,A,3723.2047,N,00559.6341,W,0.000,0.00,150914,,A*62
$GPGGA,103240.000,3723.2024,N,00559.6387,W,1,0,,14.0,M,,M,,*7D
$GPRMC,103240.000,A,3723.2024,N,00559.6387,W,0.000,0.00,150914,,A*6E
$GPGGA,103302.000,3723.1880,N,00559.6466,W,1,0,,13.0,M,,M,,*70
$GPRMC,103302.000,A,3723.1880,N,00559.6466,W,0.000,0.00,150914,,A*64
$GPGGA,103347.000,3723.1578,N,00559.6532,W,1,0,,14.0,M,,M,,*7C
$GPRMC,103347.000,A,3723.1578,N,00559.6532,W,0.000,0.00,150914,,A*6F
$GPGGA,103443.000,3723.1235,N,00559.6436,W,1,0,,14.0,M,,M,,*74
$GPRMC,103443.000,A,3723.1235,N,00559.6436,W,0.000,0.00,150914,,A*67
$GPGGA,103528.000,3723.1164,N,00559.6453,W,1,0,,14.0,M,,M,,*7C
$GPRMC,103528.000,A,3723.1164,N,00559.6453,W,0.000,0.00,150914,,A*6F
$GPGGA,103603.000,3723.0896,N,00559.6367,W,1,0,,14.0,M,,M,,*73
$GPRMC,103603.000,A,3723.0896,N,00559.6367,W,0.000,0.00,150914,,A*60
$GPGGA,103618.000,3723.0885,N,00559.6352,W,1,0,,14.0,M,,M,,*7D
$GPRMC,103618.000,A,3723.0885,N,00559.6352,W,0.000,0.00,150914,,A*6E
$GPGGA,103633.000,3723.0724,N,00559.6232,W,1,0,,14.0,M,,M,,*77
$GPRMC,103633.000,A,3723.0724,N,00559.6232,W,0.000,0.00,150914,,A*64
$GPGGA,103659.000,3723.0578,N,00559.6373,W,1,0,,14.0,M,,M,,*74
$GPRMC,103659.000,A,3723.0578,N,00559.6373,W,0.000,0.00,150914,,A*67
$GPGGA,103714.000,3723.0441,N,00559.6235,W,1,0,,14.0,M,,M,,*74
$GPRMC,103714.000,A,3723.0441,N,00559.6235,W,0.000,0.00,150914,,A*67
$GPGGA,103750.000,3723.0395,N,00559.6537,W,1,0,,13.0,M,,M,,*78
$GPRMC,103750.000,A,3723.0395,N,00559.6537,W,0.000,0.00,150914,,A*6C
$GPGGA,103812.000,3723.0237,N,00559.6353,W,1,0,,13.0,M,,M,,*7C
$GPRMC,103812.000,A,3723.0237,N,00559.6353,W,0.000,0.00,150914,,A*68
$GPGGA,103837.000,3723.0241,N,00559.6252,W,1,0,,13.0,M,,M,,*7A
$GPRMC,103837.000,A,3723.0241,N,00559.6252,W,0.000,0.00,150914,,A*6E
$GPGGA,103946.000,3722.9717,N,00559.6155,W,1,0,,13.0,M,,M,,*77
$GPRMC,103946.000,A,3722.9717,N,00559.6155,W,0.000,0.00,150914,,A*63
$GPGGA,104022.000,3722.9582,N,00559.6271,W,1,0,,13.0,M,,M,,*70
$GPRMC,104022.000,A,3722.9582,N,00559.6271,W,0.000,0.00,150914,,A*64
$GPGGA,104045.000,3722.9536,N,00559.6392,W,1,0,,13.0,M,,M,,*72
$GPRMC,104045.000,A,3722.9536,N,00559.6392,W,0.000,0.00,150914,,A*66
$GPGGA,104112.000,3722.9369,N,00559.6372,W,1,0,,13.0,M,,M,,*73
$GPRMC,104112.000,A,3722.9369,N,00559.6372,W,0.000,0.00,150914,,A*67
$GPGGA,104127.000,3722.9310,N,00559.6301,W,1,0,,13.0,M,,M,,*7F
$GPRMC,104127.000,A,3722.9310,N,00559.6301,W,0.000,0.00,150914,,A*6B
$GPGGA,104142.000,3722.9340,N,00559.6379,W,1,0,,13.0,M,,M,,*76
$GPRMC,104142.000,A,3722.9340,N,00559.6379,W,0.000,0.00,150914,,A*62
$GPGGA,104157.000,3722.9276,N,00559.6380,W,1,0,,13.0,M,,M,,*70
$GPRMC,104157.000,A,3722.9276,N,00559.6380,W,0.000,0.00,150914,,A*64
$GPGGA,104212.000,3722.9246,N,00559.6331,W,1,0,,13.0,M,,M,,*7B
$GPRMC,104212.000,A,3722.9246,N,00559.6331,W,0.000,0.00,150914,,A*6F
$GPGGA,104227.000,3722.9243,N,00559.6311,W,1,0,,13.0,M,,M,,*7A
$GPRMC,104227.000,A,3722.9243,N,00559.6311,W,0.000,0.00,150914,,A*6E
$GPGGA,104242.000,3722.9243,N,00559.6289,W,1,0,,13.0,M,,M,,*79
$GPRMC,104242.000,A,3722.9243,N,00559.6289,W,0.000,0.00,150914,,A*6D
$GPGGA,104257.000,3722.9243,N,00559.6351,W,1,0,,12.0,M,,M,,*78
$GPRMC,104257.000,A,3722.9243,N,00559.6351,W,0.000,0.00,150914,,A*6D
$GPGGA,104312.000,3722.9195,N,00559.6352,W,1,0,,11.0,M,,M,,*70
$GPRMC,104312.000,A,3722.9195,N,00559.6352,W,0.000,0.00,150914,,A*66
$GPGGA,104327.000,3722.9056,N,00559.6292,W,1,0,,10.0,M,,M,,*74
$GPRMC,104327.000,A,3722.9056,N,00559.6292,W,0.000,0.00,150914,,A*63
$GPGGA,104342.000,3722.9227,N,00559.6315,W,1,0,,5.0,M,,M,,*49
$GPRMC,104342.000,A,3722.9227,N,00559.6315,W,0.000,0.00,150914,,A*6A
$GPGGA,104357.000,3722.9239,N,00559.6293,W,1,0,,1.0,M,,M,,*49
$GPRMC,104357.000,A,3722.9239,N,00559.6293,W,0.000,0.00,150914,,A*6E
$GPGGA,104412.000,3722.9248,N,00559.6308,W,1,0,,0.0,M,,M,,*4B
$GPRMC,104412.000,A,3722.9248,N,00559.6308,W,0.000,0.00,150914,,A*6D
$GPGGA,104427.000,3722.9278,N,00559.6322,W,1,0,,1.0,M,,M,,*47
$GPRMC,104427.000,A,3722.9278,N,00559.6322,W,0.000,0.00,150914,,A*60
$GPGGA,104442.000,3722.9324,N,00559.6308,W,1,0,,1.0,M,,M,,*44
$GPRMC,104442.000,A,3722.9324,N,00559.6308,W,0.000,0.00,150914,,A*63
$GPGGA,104457.000,3722.9356,N,00559.6278,W,1,0,,0.0,M,,M,,*42
$GPRMC,104457.000,A,3722.9356,N,00559.6278,W,0.000,0.00,150914,,A*64
$GPGGA,104514.000,3722.9379,N,00559.6238,W,1,0,,0.0,M,,M,,*4D
$GPRMC,104514.000,A,3722.9379,N,00559.6238,W,0.000,0.00,150914,,A*6B
$GPGGA,104540.000,3722.9324,N,00559.6207,W,1,0,,0.0,M,,M,,*48
$GPRMC,104540.000,A,3722.9324,N,00559.6207,W,0.000,0.00,150914,,A*6E
$GPGGA,104555.000,3722.9301,N,00559.6231,W,1,0,,0.0,M,,M,,*4E
$GPRMC,104555.000,A,3722.9301,N,00559.6231,W,0.000,0.00,150914,,A*68
$GPGGA,104620.000,3722.9319,N,00559.6282,W,1,0,,0.0,M,,M,,*4E
$GPRMC,104620.000,A,3722.9319,N,00559.6282,W,0.000,0.00,150914,,A*68
$GPGGA,104637.000,3722.9388,N,00559.6370,W,1,0,,0.0,M,,M,,*4C
$GPRMC,104637.000,A,3722.9388,N,00559.6370,W,0.000,0.00,150914,,A*6A
$GPGGA,104654.000,3722.9401,N,00559.6369,W,1,0,,0.0,M,,M,,*47
$GPRMC,104654.000,A,3722.9401,N,00559.6369,W,0.000,0.00,150914,,A*61
$GPGGA,104723.000,3722.9314,N,00559.6215,W,1,0,,1.0,M,,M,,*4E
$GPRMC,104723.000,A,3722.9314,N,00559.6215,W,0.000,0.00,150914,,A*69
$GPGGA,104738.000,3722.9328,N,00559.6235,W,1,0,,1.0,M,,M,,*49
$GPRMC,104738.000,A,3722.9328,N,00559.6235,W,0.000,0.00,150914,,A*6E
$GPGGA,104754.000,3722.9397,N,00559.6233,W,1,0,,1.0,M,,M,,*41
$GPRMC,104754.000,A,3722.9397,N,00559.6233,W,0.000,0.00,150914,,A*66
$GPGGA,104809.000,3722.9282,N,00559.6237,W,1,0,,1.0,M,,M,,*47
$GPRMC,104809.000,A,3722.9282,N,00559.6237,W,0.000,0.00,150914,,A*60
$GPGGA,104824.000,3722.9269,N,00559.6274,W,1,0,,1.0,M,,M,,*4A
$GPRMC,104824.000,A,3722.9269,N,00559.6274,W,0.000,0.00,150914,,A*6D
$GPGGA,104839.000,3722.9234,N,00559.6269,W,1,0,,1.0,M,,M,,*42
$GPRMC,104839.000,A,3722.9234,N,00559.6269,W,0.000,0.00,150914,,A*65
$GPGGA,104854.000,3722.9207,N,00559.6296,W,1,0,,1.0,M,,M,,*49
$GPRMC,104854.000,A,3722.9207,N,00559.6296,W,0.000,0.00,150914,,A*6E
$GPGGA,104909.000,3722.9227,N,00559.6327,W,1,0,,1.0,M,,M,,*49
$GPRMC,104909.000,A,3722.9227,N,00559.6327,W,0.000,0.00,150914,,A*6E
$GPGGA,104924.000,3722.9209,N,00559.6321,W,1,0,,1.0,M,,M,,*4C
$GPRMC,104924.000,A,3722.9209,N,00559.6321,W,0.000,0.00,150914,,A*6B
$GPGGA,104941.000,3722.9255,N,00559.6340,W,1,0,,1.0,M,,M,,*41
$GPRMC,104941.000,A,3722.9255,N,00559.6340,W,0.000,0.00,150914,,A*66
$GPGGA,104956.000,3722.9253,N,00559.6315,W,1,0,,1.0,M,,M,,*41
$GPRMC,104956.000,A,3722.9253,N,00559.6315,W,0.000,0.00,150914,,A*66
$GPGGA,105011.000,3722.9195,N,00559.6287,W,1,0,,1.0,M,,M,,*49
$GPRMC,105011.000,A,3722.9195,N,00559.6287,W,0.000,0.00,150914,,A*6E
$GPGGA,105026.000,3722.9234,N,00559.6271,W,1,0,,0.0,M,,M,,*4D
$GPRMC,105026.000,A,3722.9234,N,00559.6271,W,0.000,0.00,150914,,A*6B
$GPGGA,105041.000,3722.9243,N,00559.6356,W,1,0,,1.0,M,,M,,*49
$GPRMC,105041.000,A,3722.9243,N,00559.6356,W,0.000,0.00,150914,,A*6E
$GPGGA,105056.000,3722.9230,N,00559.6362,W,1,0,,1.0,M,,M,,*4C
$GPRMC,105056.000,A,3722.9230,N,00559.6362,W,0.000,0.00,150914,,A*6B
$GPGGA,105111.000,3722.9234,N,00559.6354,W,1,0,,0.0,M,,M,,*4E
$GPRMC,105111.000,A,3722.9234,N,00559.6354,W,0.000,0.00,150914,,A*68
$GPGGA,105126.000,3722.9248,N,00559.6343,W,1,0,,0.0,M,,M,,*47
$GPRMC,105126.000,A,3722.9248,N,00559.6343,W,0.000,0.00,150914,,A*61
$GPGGA,105141.000,3722.9237,N,00559.6326,W,1,0,,0.0,M,,M,,*4D
$GPRMC,105141.000,A,3722.9237,N,00559.6326,W,0.000,0.00,150914,,A*6B
$GPGGA,105158.000,3722.9250,N,00559.6319,W,1,0,,0.0,M,,M,,*48
$GPRMC,105158.000,A,3722.9250,N,00559.6319,W,0.000,0.00,150914,,A*6E
$GPGGA,105213.000,3722.9246,N,00559.6319,W,1,0,,1.0,M,,M,,*42
$GPRMC,105213.000,A,3722.9246,N,00559.6319,W,0.000,0.00,150914,,A*65
$GPGGA,105228.000,3722.9255,N,00559.6332,W,1,0,,1.0,M,,M,,*41
$GPRMC,105228.000,A,3722.9255,N,00559.6332,W,0.000,0.00,150914,,A*66
$GPGGA,105244.000,3722.9262,N,00559.6328,W,1,0,,1.0,M,,M,,*44
$GPRMC,105244.000,A,3722.9262,N,00559.6328,W,0.000,0.00,150914,,A*63
$GPGGA,105259.000,3722.9253,N,00559.6326,W,1,0,,1.0,M,,M,,*44
$GPRMC,105259.000,A,3722.9253,N,00559.6326,W,0.000,0.00,150914,,A*63
$GPGGA,105314.000,3722.9259,N,00559.6319,W,1,0,,0.0,M,,M,,*4B
$GPRMC,105314.000,A,3722.9259,N,00559.6319,W,0.000,0.00,150914,,A*6D
$GPGGA,105330.000,3722.9271,N,00559.6317,W,1,0,,0.0,M,,M,,*49
$GPRMC,105330.000,A,3722.9271,N,00559.6317,W,0.000,0.00,150914,,A*6F
$GPGGA,105346.000,3722.9227,N,00559.6306,W,1,0,,0.0,M,,M,,*4B
$GPRMC,105346.000,A,3722.9227,N,00559.6306,W,0.000,0.00,150914,,A*6D
$GPGGA,105402.000,3722.9230,N,00559.6298,W,1,0,,0.0,M,,M,,*4C
$GPRMC,105402.000,A,3722.9230,N,00559.6298,W,0.000,0.00,150914,,A*6A
$GPGGA,105417.000,3722.9175,N,00559.6306,W,1,0,,1.0,M,,M,,*4D
$GPRMC,105417.000,A,3722.9175,N,00559.6306,W,0.000,0.00,150914,,A*6A
$GPGGA,105433.000,3722.9262,N,00559.6293,W,1,0,,1.0,M,,M,,*43
$GPRMC,105433.000,A,3722.9262,N,00559.6293,W,0.000,0.00,150914,,A*64
$GPGGA,105448.000,3722.9218,N,00559.6343,W,1,0,,1.0,M,,M,,*4E
$GPRMC,105448.000,A,3722.9218,N,00559.6343,W,0.000,0.00,150914,,A*69
$GPGGA,105503.000,3722.9230,N,00559.6266,W,1,0,,1.0,M,,M,,*4C
$GPRMC,105503.000,A,3722.9230,N,00559.6266,W,0.000,0.00,150914,,A*6B
$GPGGA,105518.000,3722.9202,N,00559.6296,W,1,0,,1.0,M,,M,,*48
$GPRMC,105518.000,A,3722.9202,N,00559.6296,W,0.000,0.00,150914,,A*6F
$GPGGA,105533.000,3722.9227,N,00559.6317,W,1,0,,1.0,M,,M,,*4E
$GPRMC,105533.000,A,3722.9227,N,00559.6317,W,0.000,0.00,150914,,A*69
$GPGGA,105549.000,3722.9257,N,00559.6327,W,1,0,,2.0,M,,M,,*44
$GPRMC,105549.000,A,3722.9257,N,00559.6327,W,0.000,0.00,150914,,A*60
$GPGGA,105604.000,3722.9241,N,00559.6296,W,1,0,,2.0,M,,M,,*42
$GPRMC,105604.000,A,3722.9241,N,00559.6296,W,0.000,0.00,150914,,A*66
$GPGGA,105619.000,3722.9248,N,00559.6318,W,1,0,,2.0,M,,M,,*40
$GPRMC,105619.000,A,3722.9248,N,00559.6318,W,0.000,0.00,150914,,A*64
$GPGGA,105634.000,3722.9273,N,00559.6307,W,1,0,,2.0,M,,M,,*49
$GPRMC,105634.000,A,3722.9273,N,00559.6307,W,0.000,0.00,150914,,A*6D
$GPGGA,105650.000,3722.9243,N,00559.6297,W,1,0,,2.0,M,,M,,*40
$GPRMC,105650.000,A,3722.9243,N,00559.6297,W,0.000,0.00,150914,,A*64
$GPGGA,105705.000,3722.9237,N,00559.6323,W,1,0,,2.0,M,,M,,*4C
$GPRMC,105705.000,A,3722.9237,N,00559.6323,W,0.000,0.00,150914,,A*68
$GPGGA,105720.000,3722.9250,N,00559.6391,W,1,0,,2.0,M,,M,,*43
$GPRMC,105720.000,A,3722.9250,N,00559.6391,W,0.000,0.00,150914,,A*67
$GPGGA,105736.000,3722.9273,N,00559.6516,W,1,0,,2.0,M,,M,,*4C
$GPRMC,105736.000,A,3722.9273,N,00559.6516,W,0.000,0.00,150914,,A*68
$GPGGA,105804.000,3722.9234,N,00559.6574,W,1,0,,2.0,M,,M,,*45
$GPRMC,105804.000,A,3722.9234,N,00559.6574,W,0.000,0.00,150914,,A*61
$GPGGA,105819.000,3722.9195,N,00559.6655,W,1,0,,2.0,M,,M,,*41
$GPRMC,105819.000,A,3722.9195,N,00559.6655,W,0.000,0.00,150914,,A*65
$GPGGA,105836.000,3722.9072,N,00559.6878,W,1,0,,2.0,M,,M,,*45
$GPRMC,105836.000,A,3722.9072,N,00559.6878,W,0.000,0.00,150914,,A*61
$GPGGA,105856.000,3722.8980,N,00559.7023,W,1,0,,2.0,M,,M,,*41
$GPRMC,105856.000,A,3722.8980,N,00559.7023,W,0.000,0.00,150914,,A*65
$GPGGA,105911.000,3722.8848,N,00559.7028,W,1,0,,2.0,M,,M,,*4D
$GPRMC,105911.000,A,3722.8848,N,00559.7028,W,0.000,0.00,150914,,A*69
$GPGGA,105928.000,3722.8735,N,00559.7007,W,1,0,,2.0,M,,M,,*4F
$GPRMC,105928.000,A,3722.8735,N,00559.7007,W,0.000,0.00,150914,,A*6B
$GPGGA,105943.000,3722.8660,N,00559.6936,W,1,0,,2.0,M,,M,,*49
$GPRMC,105943.000,A,3722.8660,N,00559.6936,W,0.000,0.00,150914,,A*6D
$GPGGA,105958.000,3722.8619,N,00559.6881,W,1,0,,2.0,M,,M,,*40
$GPRMC,105958.000,A,3722.8619,N,00559.6881,W,0.000,0.00,150914,,A*64
$GPGGA,110014.000,3722.8415,N,00559.6766,W,1,0,,2.0,M,,M,,*4D
$GPRMC,110014.000,A,3722.8415,N,00559.6766,W,0.000,0.00,150914,,A*69
$GPGGA,110029.000,3722.8378,N,00559.6738,W,1,0,,2.0,M,,M,,*44
$GPRMC,110029.000,A,3722.8378,N,00559.6738,W,0.000,0.00,150914,,A*60
$GPGGA,110045.000,3722.8296,N,00559.6620,W,1,0,,2.0,M,,M,,*47
$GPRMC,110045.000,A,3722.8296,N,00559.6620,W,0.000,0.00,150914,,A*63
$GPGGA,110100.000,3722.8305,N,00559.6651,W,1,0,,2.0,M,,M,,*4A
$GPRMC,110100.000,A,3722.8305,N,00559.6651,W,0.000,0.00,150914,,A*6E
$GPGGA,110115.000,3722.8280,N,00559.6737,W,1,0,,3.0,M,,M,,*42
$GPRMC,110115.000,A,3722.8280,N,00559.6737,W,0.000,0.00,150914,,A*67
$GPGGA,110131.000,3722.8234,N,00559.6750,W,1,0,,3.0,M,,M,,*4A
$GPRMC,110131.000,A,3722.8234,N,00559.6750,W,0.000,0.00,150914,,A*6F
$GPGGA,110146.000,3722.8243,N,00559.6762,W,1,0,,3.0,M,,M,,*4B
$GPRMC,110146.000,A,3722.8243,N,00559.6762,W,0.000,0.00,150914,,A*6E
$GPGGA,110201.000,3722.8266,N,00559.6793,W,1,0,,2.0,M,,M,,*43
$GPRMC,110201.000,A,3722.8266,N,00559.6793,W,0.000,0.00,150914,,A*67
$GPGGA,110216.000,3722.8197,N,00559.6943,W,1,0,,3.0,M,,M,,*4A
$GPRMC,110216.000,A,3722.8197,N,00559.6943,W,0.000,0.00,150914,,A*6F
$GPGGA,110235.000,3722.8170,N,00559.6940,W,1,0,,3.0,M,,M,,*41
$GPRMC,110235.000,A,3722.8170,N,00559.6940,W,0.000,0.00,150914,,A*64
$GPGGA,110251.000,3722.8111,N,00559.6909,W,1,0,,3.0,M,,M,,*49
$GPRMC,110251.000,A,3722.8111,N,00559.6909,W,0.000,0.00,150914,,A*6C
$GPGGA,110306.000,3722.8014,N,00559.6863,W,1,0,,3.0,M,,M,,*43
$GPRMC,110306.000,A,3722.8014,N,00559.6863,W,0.000,0.00,150914,,A*66
$GPGGA,110321.000,3722.7893,N,00559.6816,W,1,0,,3.0,M,,M,,*4C
$GPRMC,110321.000,A,3722.7893,N,00559.6816,W,0.000,0.00,150914,,A*69
$GPGGA,110336.000,3722.7845,N,00559.6776,W,1,0,,3.0,M,,M,,*48
$GPRMC,110336.000,A,3722.7845,N,00559.6776,W,0.000,0.00,150914,,A*6D
$GPGGA,110351.000,3722.7776,N,00559.6705,W,1,0,,3.0,M,,M,,*42
$GPRMC,110351.000,A,3722.7776,N,00559.6705,W,0.000,0.00,150914,,A*67
$GPGGA,110406.000,3722.7669,N,00559.6672,W,1,0,,3.0,M,,M,,*49
$GPRMC,110406.000,A,3722.7669,N,00559.6672,W,0.000,0.00,150914,,A*6C
$GPGGA,110428.000,3722.7568,N,00559.6571,W,1,0,,3.0,M,,M,,*47
$GPRMC,110428.000,A,3722.7568,N,00559.6571,W,0.000,0.00,150914,,A*62
$GPGGA,110445.000,3722.7454,N,00559.6484,W,1,0,,3.0,M,,M,,*49
$GPRMC,110445.000,A,3722.7454,N,00559.6484,W,0.000,0.00,150914,,A*6C
$GPGGA,110500.000,3722.7415,N,00559.6482,W,1,0,,3.0,M,,M,,*4A
$GPRMC,110500.000,A,3722.7415,N,00559.6482,W,0.000,0.00,150914,,A*6F
$GPGGA,110516.000,3722.7401,N,00559.6476,W,1,0,,3.0,M,,M,,*43
$GPRMC,110516.000,A,3722.7401,N,00559.6476,W,0.000,0.00,150914,,A*66
$GPGGA,110531.000,3722.7357,N,00559.6475,W,1,0,,3.0,M,,M,,*41
$GPRMC,110531.000,A,3722.7357,N,00559.6475,W,0.000,0.00,150914,,A*64
$GPGGA,110547.000,3722.7309,N,00559.6420,W,1,0,,3.0,M,,M,,*4B
$GPRMC,110547.000,A,3722.7309,N,00559.6420,W,0.000,0.00,150914,,A*6E
$GPGGA,110604.000,3722.7243,N,00559.6371,W,1,0,,3.0,M,,M,,*43
$GPRMC,110604.000,A,3722.7243,N,00559.6371,W,0.000,0.00,150914,,A*66
$GPGGA,110619.000,3722.7151,N,00559.6311,W,1,0,,3.0,M,,M,,*49
$GPRMC,110619.000,A,3722.7151,N,00559.6311,W,0.000,0.00,150914,,A*6C
$GPGGA,110634.000,3722.7138,N,00559.6250,W,1,0,,3.0,M,,M,,*4D
$GPRMC,110634.000,A,3722.7138,N,00559.6250,W,0.000,0.00,150914,,A*68
$GPGGA,110649.000,3722.7083,N,00559.6245,W,1,0,,3.0,M,,M,,*42
$GPRMC,110649.000,A,3722.7083,N,00559.6245,W,0.000,0.00,150914,,A*67
$GPGGA,110704.000,3722.7053,N,00559.6232,W,1,0,,3.0,M,,M,,*47
$GPRMC,110704.000,A,3722.7053,N,00559.6232,W,0.000,0.00,150914,,A*62
$GPGGA,110719.000,3722.6994,N,00559.6192,W,1,0,,3.0,M,,M,,*41
$GPRMC,110719.000,A,3722.6994,N,00559.6192,W,0.000,0.00,150914,,A*64
$GPGGA,110734.000,3722.6948,N,00559.6162,W,1,0,,3.0,M,,M,,*40
$GPRMC,110734.000,A,3722.6948,N,00559.6162,W,0.000,0.00,150914,,A*65
$GPGGA,110749.000,3722.6879,N,00559.6131,W,1,0,,3.0,M,,M,,*4F
$GPRMC,110749.000,A,3722.6879,N,00559.6131,W,0.000,0.00,150914,,A*6A
$GPGGA,110804.000,3722.6831,N,00559.6111,W,1,0,,4.0,M,,M,,*40
$GPRMC,110804.000,A,3722.6831,N,00559.6111,W,0.000,0.00,150914,,A*62
$GPGGA,110819.000,3722.6772,N,00559.6045,W,1,0,,4.0,M,,M,,*44
$GPRMC,110819.000,A,3722.6772,N,00559.6045,W,0.000,0.00,150914,,A*66
$GPGGA,110835.000,3722.6712,N,00559.6014,W,1,0,,3.0,M,,M,,*4F
$GPRMC,110835.000,A,3722.6712,N,00559.6014,W,0.000,0.00,150914,,A*6A
$GPGGA,110851.000,3722.6641,N,00559.5977,W,1,0,,4.0,M,,M,,*42
$GPRMC,110851.000,A,3722.6641,N,00559.5977,W,0.000,0.00,150914,,A*60
$GPGGA,110907.000,3722.6566,N,00559.5933,W,1,0,,4.0,M,,M,,*46
$GPRMC,110907.000,A,3722.6566,N,00559.5933,W,0.000,0.00,150914,,A*64
$GPGGA,110936.000,3722.6428,N,00559.5869,W,1,0,,3.0,M,,M,,*46
$GPRMC,110936.000,A,3722.6428,N,00559.5869,W,0.000,0.00,150914,,A*63
$GPGGA,110951.000,3722.6289,N,00559.5788,W,1,0,,3.0,M,,M,,*4A
$GPRMC,110951.000,A,3722.6289,N,00559.5788,W,0.000,0.00,150914,,A*6F
$GPGGA,111006.000,3722.6225,N,00559.5713,W,1,0,,3.0,M,,M,,*44
$GPRMC,111006.000,A,3722.6225,N,00559.5713,W,0.000,0.00,150914,,A*61
$GPGGA,111021.000,3722.6151,N,00559.5653,W,1,0,,3.0,M,,M,,*44
$GPRMC,111021.000,A,3722.6151,N,00559.5653,W,0.000,0.00,150914,,A*61
$GPGGA,111040.000,3722.6108,N,00559.5607,W,1,0,,4.0,M,,M,,*49
$GPRMC,111040.000,A,3722.6108,N,00559.5607,W,0.000,0.00,150914,,A*6B
$GPGGA,111056.000,3722.5973,N,00559.5525,W,1,0,,4.0,M,,M,,*4A
$GPRMC,111056.000,A,3722.5973,N,00559.5525,W,0.000,0.00,150914,,A*68
$GPGGA,111111.000,3722.5927,N,00559.5496,W,1,0,,4.0,M,,M,,*40
$GPRMC,111111.000,A,3722.5927,N,00559.5496,W,0.000,0.00,150914,,A*62
$GPGGA,111127.000,3722.5851,N,00559.5431,W,1,0,,4.0,M,,M,,*48
$GPRMC,111127.000,A,3722.5851,N,00559.5431,W,0.000,0.00,150914,,A*6A
$GPGGA,111143.000,3722.5748,N,00559.5373,W,1,0,,4.0,M,,M,,*4C
$GPRMC,111143.000,A,3722.5748,N,00559.5373,W,0.000,0.00,150914,,A*6E
$GPGGA,111158.000,3722.5710,N,00559.5308,W,1,0,,4.0,M,,M,,*47
$GPRMC,111158.000,A,3722.5710,N,00559.5308,W,0.000,0.00,150914,,A*65
$GPGGA,111214.000,3722.5650,N,00559.5242,W,1,0,,4.0,M,,M,,*46
$GPRMC,111214.000,A,3722.5650,N,00559.5242,W,0.000,0.00,150914,,A*64
$GPGGA,111229.000,3722.5568,N,00559.5201,W,1,0,,4.0,M,,M,,*47
$GPRMC,111229.000,A,3722.5568,N,00559.5201,W,0.000,0.00,150914,,A*65
$GPGGA,111244.000,3722.5579,N,00559.5117,W,1,0,,4.0,M,,M,,*48
$GPRMC,111244.000,A,3722.5579,N,00559.5117,W,0.000,0.00,150914,,A*6A
$GPGGA,111259.000,3722.5572,N,00559.5097,W,1,0,,4.0,M,,M,,*46
$GPRMC,111259.000,A,3722.5572,N,00559.5097,W,0.000,0.00,150914,,A*64
$GPGGA,111315.000,3722.5602,N,00559.4996,W,1,0,,4.0,M,,M,,*42
$GPRMC,111315.000,A,3722.5602,N,00559.4996,W,0.000,0.00,150914,,A*60
$GPGGA,111331.000,3722.5618,N,00559.4897,W,1,0,,4.0,M,,M,,*4F
$GPRMC,111331.000,A,3722.5618,N,00559.4897,W,0.000,0.00,150914,,A*6D
$GPGGA,111346.000,3722.5613,N,00559.4864,W,1,0,,4.0,M,,M,,*48
$GPRMC,111346.000,A,3722.5613,N,00559.4864,W,0.000,0.00,150914,,A*6A
$GPGGA,111404.000,3722.5563,N,00559.4775,W,1,0,,4.0,M,,M,,*42
$GPRMC,111404.000,A,3722.5563,N,00559.4775,W,0.000,0.00,150914,,A*60
$GPGGA,111419.000,3722.5517,N,00559.4718,W,1,0,,4.0,M,,M,,*46
$GPRMC,111419.000,A,3722.5517,N,00559.4718,W,0.000,0.00,150914,,A*64
$GPGGA,111436.000,3722.5385,N,00559.4573,W,1,0,,4.0,M,,M,,*49
$GPRMC,111436.000,A,3722.5385,N,00559.4573,W,0.000,0.00,150914,,A*6B
$GPGGA,111452.000,3722.5394,N,00559.4512,W,1,0,,4.0,M,,M,,*4C
$GPRMC,111452.000,A,3722.5394,N,00559.4512,W,0.000,0.00,150914,,A*6E
$GPGGA,111508.000,3722.5330,N,00559.4391,W,1,0,,4.0,M,,M,,*41
$GPRMC,111508.000,A,3722.5330,N,00559.4391,W,0.000,0.00,150914,,A*63
$GPGGA,111537.000,3722.5314,N,00559.4225,W,1,0,,4.0,M,,M,,*45
$GPRMC,111537.000,A,3722.5314,N,00559.4225,W,0.000,0.00,150914,,A*67
$GPGGA,111552.000,3722.5318,N,00559.4209,W,1,0,,4.0,M,,M,,*44
$GPRMC,111552.000,A,3722.5318,N,00559.4209,W,0.000,0.00,150914,,A*66
$GPGGA,111616.000,3722.5382,N,00559.4202,W,1,0,,4.0,M,,M,,*4F
$GPRMC,111616.000,A,3722.5382,N,00559.4202,W,0.000,0.00,150914,,A*6D
$GPGGA,111631.000,3722.5327,N,00559.4207,W,1,0,,4.0,M,,M,,*40
$GPRMC,111631.000,A,3722.5327,N,00559.4207,W,0.000,0.00,150914,,A*62
$GPGGA,111646.000,3722.5325,N,00559.4203,W,1,0,,4.0,M,,M,,*46
$GPRMC,111646.000,A,3722.5325,N,00559.4203,W,0.000,0.00,150914,,A*64
$GPGGA,111702.000,3722.5222,N,00559.4160,W,1,0,,4.0,M,,M,,*47
$GPRMC,111702.000,A,3722.5222,N,00559.4160,W,0.000,0.00,150914,,A*65
$GPGGA,111718.000,3722.5174,N,00559.4125,W,1,0,,4.0,M,,M,,*4D
$GPRMC,111718.000,A,3722.5174,N,00559.4125,W,0.000,0.00,150914,,A*6F
$GPGGA,111733.000,3722.5135,N,00559.4053,W,1,0,,4.0,M,,M,,*41
$GPRMC,111733.000,A,3722.5135,N,00559.4053,W,0.000,0.00,150914,,A*63
$GPGGA,111748.000,3722.5089,N,00559.3966,W,1,0,,4.0,M,,M,,*43
$GPRMC,111748.000,A,3722.5089,N,00559.3966,W,0.000,0.00,150914,,A*61
$GPGGA,111804.000,3722.5076,N,00559.3916,W,1,0,,4.0,M,,M,,*43
$GPRMC,111804.000,A,3722.5076,N,00559.3916,W,0.000,0.00,150914,,A*61
$GPGGA,111827.000,3722.5009,N,00559.3867,W,1,0,,4.0,M,,M,,*4D
$GPRMC,111827.000,A,3722.5009,N,00559.3867,W,0.000,0.00,150914,,A*6F
$GPGGA,111842.000,3722.4952,N,00559.3820,W,1,0,,4.0,M,,M,,*4B
$GPRMC,111842.000,A,3722.4952,N,00559.3820,W,0.000,0.00,150914,,A*69
$GPGGA,111858.000,3722.4837,N,00559.3771,W,1,0,,4.0,M,,M,,*49
$GPRMC,111858.000,A,3722.4837,N,00559.3771,W,0.000,0.00,150914,,A*6B
$GPGGA,111913.000,3722.4785,N,00559.3716,W,1,0,,4.0,M,,M,,*40
$GPRMC,111913.000,A,3722.4785,N,00559.3716,W,0.000,0.00,150914,,A*62
$GPGGA,111928.000,3722.4723,N,00559.3552,W,1,0,,4.0,M,,M,,*46
$GPRMC,111928.000,A,3722.4723,N,00559.3552,W,0.000,0.00,150914,,A*64
$GPGGA,111943.000,3722.4723,N,00559.3537,W,1,0,,4.0,M,,M,,*48
$GPRMC,111943.000,A,3722.4723,N,00559.3537,W,0.000,0.00,150914,,A*6A
$GPGGA,112000.000,3722.4654,N,00559.3467,W,1,0,,4.0,M,,M,,*40
$GPRMC,112000.000,A,3722.4654,N,00559.3467,W,0.000,0.00,150914,,A*62
$GPGGA,112015.000,3722.4597,N,00559.3414,W,1,0,,4.0,M,,M,,*4C
$GPRMC,112015.000,A,3722.4597,N,00559.3414,W,0.000,0.00,150914,,A*6E
$GPGGA,112030.000,3722.4606,N,00559.3376,W,1,0,,4.0,M,,M,,*43
$GPRMC,112030.000,A,3722.4606,N,00559.3376,W,0.000,0.00,150914,,A*61
$GPGGA,112045.000,3722.4622,N,00559.3312,W,1,0,,4.0,M,,M,,*45
$GPRMC,112045.000,A,3722.4622,N,00559.3312,W,0.000,0.00,150914,,A*67
$GPGGA,112100.000,3722.4597,N,00559.3229,W,1,0,,4.0,M,,M,,*41
$GPRMC,112100.000,A,3722.4597,N,00559.3229,W,0.000,0.00,150914,,A*63
$GPGGA,112116.000,3722.4590,N,00559.3142,W,1,0,,4.0,M,,M,,*4F
$GPRMC,112116.000,A,3722.4590,N,00559.3142,W,0.000,0.00,150914,,A*6D
$GPGGA,112132.000,3722.4627,N,00559.3094,W,1,0,,4.0,M,,M,,*4C
$GPRMC,112132.000,A,3722.4627,N,00559.3094,W,0.000,0.00,150914,,A*6E
$GPGGA,112147.000,3722.4652,N,00559.3071,W,1,0,,4.0,M,,M,,*47
$GPRMC,112147.000,A,3722.4652,N,00559.3071,W,0.000,0.00,150914,,A*65
$GPGGA,112203.000,3722.4609,N,00559.2994,W,1,0,,4.0,M,,M,,*49
$GPRMC,112203.000,A,3722.4609,N,00559.2994,W,0.000,0.00,150914,,A*6B
$GPGGA,112219.000,3722.4549,N,00559.2977,W,1,0,,4.0,M,,M,,*48
$GPRMC,112219.000,A,3722.4549,N,00559.2977,W,0.000,0.00,150914,,A*6A
$GPGGA,112235.000,3722.4462,N,00559.2934,W,1,0,,4.0,M,,M,,*49
$GPRMC,112235.000,A,3722.4462,N,00559.2934,W,0.000,0.00,150914,,A*6B
$GPGGA,112250.000,3722.4460,N,00559.2897,W,1,0,,4.0,M,,M,,*40
$GPRMC,112250.000,A,3722.4460,N,00559.2897,W,0.000,0.00,150914,,A*62
$GPGGA,112305.000,3722.4462,N,00559.2811,W,1,0,,4.0,M,,M,,*4D
$GPRMC,112305.000,A,3722.4462,N,00559.2811,W,0.000,0.00,150914,,A*6F
$GPGGA,112320.000,3722.4453,N,00559.2802,W,1,0,,4.0,M,,M,,*4A
$GPRMC,112320.000,A,3722.4453,N,00559.2802,W,0.000,0.00,150914,,A*68
$GPGGA,112335.000,3722.4444,N,00559.2786,W,1,0,,4.0,M,,M,,*4B
$GPRMC,112335.000,A,3722.4444,N,00559.2786,W,0.000,0.00,150914,,A*69
$GPGGA,112350.000,3722.4446,N,00559.2777,W,1,0,,4.0,M,,M,,*44
$GPRMC,112350.000,A,3722.4446,N,00559.2777,W,0.000,0.00,150914,,A*66
$GPGGA,112405.000,3722.4453,N,00559.2762,W,1,0,,4.0,M,,M,,*43
$GPRMC,112405.000,A,3722.4453,N,00559.2762,W,0.000,0.00,150914,,A*61
$GPGGA,112420.000,3722.4464,N,00559.2751,W,1,0,,4.0,M,,M,,*40
$GPRMC,112420.000,A,3722.4464,N,00559.2751,W,0.000,0.00,150914,,A*62
$GPGGA,112435.000,3722.4519,N,00559.2746,W,1,0,,4.0,M,,M,,*49
$GPRMC,112435.000,A,3722.4519,N,00559.2746,W,0.000,0.00,150914,,A*6B
$GPGGA,112450.000,3722.4551,N,00559.2721,W,1,0,,4.0,M,,M,,*47
$GPRMC,112450.000,A,3722.4551,N,00559.2721,W,0.000,0.00,150914,,A*65
$GPGGA,112505.000,3722.4538,N,00559.2702,W,1,0,,4.0,M,,M,,*48
$GPRMC,112505.000,A,3722.4538,N,00559.2702,W,0.000,0.00,150914,,A*6A
$GPGGA,112520.000,3722.4529,N,00559.2716,W,1,0,,4.0,M,,M,,*4A
$GPRMC,112520.000,A,3722.4529,N,00559.2716,W,0.000,0.00,150914,,A*68
$GPGGA,112535.000,3722.4538,N,00559.2731,W,1,0,,3.0,M,,M,,*4C
$GPRMC,112535.000,A,3722.4538,N,00559.2731,W,0.000,0.00,150914,,A*69
$GPGGA,112550.000,3722.4531,N,00559.2725,W,1,0,,3.0,M,,M,,*43
$GPRMC,112550.000,A,3722.4531,N,00559.2725,W,0.000,0.00,150914,,A*66
$GPGGA,112605.000,3722.4522,N,00559.2719,W,1,0,,3.0,M,,M,,*4D
$GPRMC,112605.000,A,3722.4522,N,00559.2719,W,0.000,0.00,150914,,A*68
$GPGGA,112621.000,3722.4517,N,00559.2731,W,1,0,,3.0,M,,M,,*47
$GPRMC,112621.000,A,3722.4517,N,00559.2731,W,0.000,0.00,150914,,A*62
$GPGGA,112636.000,3722.4522,N,00559.2792,W,1,0,,3.0,M,,M,,*4E
$GPRMC,112636.000,A,3722.4522,N,00559.2792,W,0.000,0.00,150914,,A*6B
$GPGGA,112652.000,3722.4606,N,00559.2809,W,1,0,,4.0,M,,M,,*43
$GPRMC,112652.000,A,3722.4606,N,00559.2809,W,0.000,0.00,150914,,A*61
$GPGGA,112707.000,3722.4577,N,00559.2827,W,1,0,,4.0,M,,M,,*4B
$GPRMC,112707.000,A,3722.4577,N,00559.2827,W,0.000,0.00,150914,,A*69
$GPGGA,112723.000,3722.4522,N,00559.2786,W,1,0,,3.0,M,,M,,*4E
$GPRMC,112723.000,A,3722.4522,N,00559.2786,W,0.000,0.00,150914,,A*6B
$GPGGA,112738.000,3722.4542,N,00559.2755,W,1,0,,3.0,M,,M,,*4C
$GPRMC,112738.000,A,3722.4542,N,00559.2755,W,0.000,0.00,150914,,A*69
$GPGGA,112753.000,3722.4540,N,00559.2775,W,1,0,,3.0,M,,M,,*41
$GPRMC,112753.000,A,3722.4540,N,00559.2775,W,0.000,0.00,150914,,A*64
$GPGGA,112808.000,3722.4458,N,00559.2750,W,1,0,,3.0,M,,M,,*4F
$GPRMC,112808.000,A,3722.4458,N,00559.2750,W,0.000,0.00,150914,,A*6A
$GPGGA,112832.000,3722.4469,N,00559.2768,W,1,0,,4.0,M,,M,,*48
$GPRMC,112832.000,A,3722.4469,N,00559.2768,W,0.000,0.00,150914,,A*6A
$GPGGA,112847.000,3722.4499,N,00559.2775,W,1,0,,4.0,M,,M,,*49
$GPRMC,112847.000,A,3722.4499,N,00559.2775,W,0.000,0.00,150914,,A*6B
$GPGGA,112903.000,3722.4485,N,00559.2753,W,1,0,,4.0,M,,M,,*41
$GPRMC,112903.000,A,3722.4485,N,00559.2753,W,0.000,0.00,150914,,A*63
$GPGGA,112919.000,3722.4512,N,00559.2779,W,1,0,,4.0,M,,M,,*4D
$GPRMC,112919.000,A,3722.4512,N,00559.2779,W,0.000,0.00,150914,,A*6F
$GPGGA,112934.000,3722.4533,N,00559.2753,W,1,0,,4.0,M,,M,,*49
$GPRMC,112934.000,A,3722.4533,N,00559.2753,W,0.000,0.00,150914,,A*6B
$GPGGA,112949.000,3722.4549,N,00559.2740,W,1,0,,4.0,M,,M,,*4C
$GPRMC,112949.000,A,3722.4549,N,00559.2740,W,0.000,0.00,150914,,A*6E
$GPGGA,113005.000,3722.4606,N,00559.2768,W,1,0,,4.0,M,,M,,*4E
$GPRMC,113005.000,A,3722.4606,N,00559.2768,W,0.000,0.00,150914,,A*6C
$GPGGA,113020.000,3722.4570,N,00559.2772,W,1,0,,4.0,M,,M,,*40
$GPRMC,113020.000,A,3722.4570,N,00559.2772,W,0.000,0.00,150914,,A*62
$GPGGA,113036.000,3722.4609,N,00559.2831,W,1,0,,5.0,M,,M,,*43
$GPRMC,113036.000,A,3722.4609,N,00559.2831,W,0.000,0.00,150914,,A*60
$GPGGA,113051.000,3722.4602,N,00559.2851,W,1,0,,4.0,M,,M,,*4E
$GPRMC,113051.000,A,3722.4602,N,00559.2851,W,0.000,0.00,150914,,A*6C
$GPGGA,113107.000,3722.4535,N,00559.2841,W,1,0,,4.0,M,,M,,*4A
$GPRMC,113107.000,A,3722.4535,N,00559.2841,W,0.000,0.00,150914,,A*68
$GPGGA,113123.000,3722.4510,N,00559.2826,W,1,0,,4.0,M,,M,,*4A
$GPRMC,113123.000,A,3722.4510,N,00559.2826,W,0.000,0.00,150914,,A*68
$GPGGA,113138.000,3722.4572,N,00559.2753,W,1,0,,4.0,M,,M,,*49
$GPRMC,113138.000,A,3722.4572,N,00559.2753,W,0.000,0.00,150914,,A*6B
$GPGGA,113154.000,3722.4693,N,00559.2912,W,1,0,,4.0,M,,M,,*44
$GPRMC,113154.000,A,3722.4693,N,00559.2912,W,0.000,0.00,150914,,A*66
$GPGGA,113213.000,3722.4602,N,00559.2845,W,1,0,,4.0,M,,M,,*4F
$GPRMC,113213.000,A,3722.4602,N,00559.2845,W,0.000,0.00,150914,,A*6D
$GPGGA,113228.000,3722.4602,N,00559.2763,W,1,0,,4.0,M,,M,,*4C
$GPRMC,113228.000,A,3722.4602,N,00559.2763,W,0.000,0.00,150914,,A*6E
$GPGGA,113244.000,3722.4595,N,00559.2780,W,1,0,,4.0,M,,M,,*46
$GPRMC,113244.000,A,3722.4595,N,00559.2780,W,0.000,0.00,150914,,A*64
$GPGGA,113300.000,3722.4597,N,00559.2736,W,1,0,,4.0,M,,M,,*48
$GPRMC,113300.000,A,3722.4597,N,00559.2736,W,0.000,0.00,150914,,A*6A
$GPGGA,113316.000,3722.4579,N,00559.2660,W,1,0,,4.0,M,,M,,*4D
$GPRMC,113316.000,A,3722.4579,N,00559.2660,W,0.000,0.00,150914,,A*6F
$GPGGA,113331.000,3722.4577,N,00559.2558,W,1,0,,4.0,M,,M,,*4E
$GPRMC,113331.000,A,3722.4577,N,00559.2558,W,0.000,0.00,150914,,A*6C
$GPGGA,113346.000,3722.4648,N,00559.2541,W,1,0,,4.0,M,,M,,*49
$GPRMC,113346.000,A,3722.4648,N,00559.2541,W,0.000,0.00,150914,,A*6B
$GPGGA,113401.000,3722.4666,N,00559.2467,W,1,0,,4.0,M,,M,,*44
$GPRMC,113401.000,A,3722.4666,N,00559.2467,W,0.000,0.00,150914,,A*66
$GPGGA,113416.000,3722.4714,N,00559.2419,W,1,0,,4.0,M,,M,,*4F
$GPRMC,113416.000,A,3722.4714,N,00559.2419,W,0.000,0.00,150914,,A*6D
$GPGGA,113432.000,3722.4796,N,00559.2423,W,1,0,,4.0,M,,M,,*4A
$GPRMC,113432.000,A,3722.4796,N,00559.2423,W,0.000,0.00,150914,,A*68
$GPGGA,113447.000,3722.4968,N,00559.2455,W,1,0,,4.0,M,,M,,*46
$GPRMC,113447.000,A,3722.4968,N,00559.2455,W,0.000,0.00,150914,,A*64
$GPGGA,113502.000,3722.4998,N,00559.2491,W,1,0,,4.0,M,,M,,*41
$GPRMC,113502.000,A,3722.4998,N,00559.2491,W,0.000,0.00,150914,,A*63
$GPGGA,113518.000,3722.5048,N,00559.2544,W,1,0,,4.0,M,,M,,*46
$GPRMC,113518.000,A,3722.5048,N,00559.2544,W,0.000,0.00,150914,,A*64
$GPGGA,113545.000,3722.5163,N,00559.2511,W,1,0,,4.0,M,,M,,*46
$GPRMC,113545.000,A,3722.5163,N,00559.2511,W,0.000,0.00,150914,,A*64
$GPGGA,113602.000,3722.5188,N,00559.2455,W,1,0,,4.0,M,,M,,*42
$GPRMC,113602.000,A,3722.5188,N,00559.2455,W,0.000,0.00,150914,,A*60
$GPGGA,113619.000,3722.5185,N,00559.2385,W,1,0,,4.0,M,,M,,*4F
$GPRMC,113619.000,A,3722.5185,N,00559.2385,W,0.000,0.00,150914,,A*6D
$GPGGA,113634.000,3722.5293,N,00559.2360,W,1,0,,4.0,M,,M,,*4F
$GPRMC,113634.000,A,3722.5293,N,00559.2360,W,0.000,0.00,150914,,A*6D
$GPGGA,113649.000,3722.5398,N,00559.2366,W,1,0,,4.0,M,,M,,*49
$GPRMC,113649.000,A,3722.5398,N,00559.2366,W,0.000,0.00,150914,,A*6B
$GPGGA,113705.000,3722.5497,N,00559.2404,W,1,0,,4.0,M,,M,,*4B
$GPRMC,113705.000,A,3722.5497,N,00559.2404,W,0.000,0.00,150914,,A*69
$GPGGA,113720.000,3722.5563,N,00559.2403,W,1,0,,4.0,M,,M,,*41
$GPRMC,113720.000,A,3722.5563,N,00559.2403,W,0.000,0.00,150914,,A*63
$GPGGA,113735.000,3722.5620,N,00559.2364,W,1,0,,4.0,M,,M,,*47
$GPRMC,113735.000,A,3722.5620,N,00559.2364,W,0.000,0.00,150914,,A*65
$GPGGA,113750.000,3722.5673,N,00559.2348,W,1,0,,4.0,M,,M,,*4C
$GPRMC,113750.000,A,3722.5673,N,00559.2348,W,0.000,0.00,150914,,A*6E
$GPGGA,113807.000,3722.5813,N,00559.2335,W,1,0,,4.0,M,,M,,*43
$GPRMC,113807.000,A,3722.5813,N,00559.2335,W,0.000,0.00,150914,,A*61
$GPGGA,113822.000,3722.5845,N,00559.2322,W,1,0,,4.0,M,,M,,*41
$GPRMC,113822.000,A,3722.5845,N,00559.2322,W,0.000,0.00,150914,,A*63
$GPGGA,113837.000,3722.5824,N,00559.2343,W,1,0,,4.0,M,,M,,*45
$GPRMC,113837.000,A,3722.5824,N,00559.2343,W,0.000,0.00,150914,,A*67
$GPGGA,113852.000,3722.5858,N,00559.2375,W,1,0,,4.0,M,,M,,*48
$GPRMC,113852.000,A,3722.5858,N,00559.2375,W,0.000,0.00,150914,,A*6A
$GPGGA,113907.000,3722.5911,N,00559.2418,W,1,0,,4.0,M,,M,,*49
$GPRMC,113907.000,A,3722.5911,N,00559.2418,W,0.000,0.00,150914,,A*6B
$GPGGA,113922.000,3722.5993,N,00559.2458,W,1,0,,4.0,M,,M,,*40
$GPRMC,113922.000,A,3722.5993,N,00559.2458,W,0.000,0.00,150914,,A*62
$GPGGA,113937.000,3722.6055,N,00559.2485,W,1,0,,4.0,M,,M,,*44
$GPRMC,113937.000,A,3722.6055,N,00559.2485,W,0.000,0.00,150914,,A*66
$GPGGA,113952.000,3722.6124,N,00559.2469,W,1,0,,3.0,M,,M,,*45
$GPRMC,113952.000,A,3722.6124,N,00559.2469,W,0.000,0.00,150914,,A*60
$GPGGA,114007.000,3722.6117,N,00559.2463,W,1,0,,4.0,M,,M,,*46
$GPRMC,114007.000,A,3722.6117,N,00559.2463,W,0.000,0.00,150914,,A*64
$GPGGA,114022.000,3722.6131,N,00559.2463,W,1,0,,4.0,M,,M,,*45
$GPRMC,114022.000,A,3722.6131,N,00559.2463,W,0.000,0.00,150914,,A*67
$GPGGA,114037.000,3722.6147,N,00559.2466,W,1,0,,3.0,M,,M,,*42
$GPRMC,114037.000,A,3722.6147,N,00559.2466,W,0.000,0.00,150914,,A*67
$GPGGA,114055.000,3722.6087,N,00559.2435,W,1,0,,2.0,M,,M,,*4C
$GPRMC,114055.000,A,3722.6087,N,00559.2435,W,0.000,0.00,150914,,A*68
$GPGGA,114110.000,3722.6112,N,00559.2407,W,1,0,,-7.0,M,,M,,*68
$GPRMC,114110.000,A,3722.6112,N,00559.2407,W,0.000,0.00,150914,,A*64
$GPGGA,114125.000,3722.6140,N,00559.2368,W,1,0,,0.0,M,,M,,*4D
$GPRMC,114125.000,A,3722.6140,N,00559.2368,W,0.000,0.00,150914,,A*6B
$GPGGA,114140.000,3722.6131,N,00559.2232,W,1,0,,1.0,M,,M,,*47
$GPRMC,114140.000,A,3722.6131,N,00559.2232,W,0.000,0.00,150914,,A*60
$GPGGA,114155.000,3722.6135,N,00559.2183,W,1,0,,0.0,M,,M,,*4F
$GPRMC,114155.000,A,3722.6135,N,00559.2183,W,0.000,0.00,150914,,A*69
$GPGGA,114210.000,3722.6167,N,00559.2110,W,1,0,,1.0,M,,M,,*41
$GPRMC,114210.000,A,3722.6167,N,00559.2110,W,0.000,0.00,150914,,A*66
$GPGGA,114236.000,3722.6218,N,00559.2052,W,1,0,,0.0,M,,M,,*48
$GPRMC,114236.000,A,3722.6218,N,00559.2052,W,0.000,0.00,150914,,A*6E
$GPGGA,114252.000,3722.6199,N,00559.2022,W,1,0,,1.0,M,,M,,*46
$GPRMC,114252.000,A,3722.6199,N,00559.2022,W,0.000,0.00,150914,,A*61
$GPGGA,114309.000,3722.6211,N,00559.1992,W,1,0,,1.0,M,,M,,*4B
$GPRMC,114309.000,A,3722.6211,N,00559.1992,W,0.000,0.00,150914,,A*6C
$GPGGA,114324.000,3722.6243,N,00559.1973,W,1,0,,1.0,M,,M,,*4C
$GPRMC,114324.000,A,3722.6243,N,00559.1973,W,0.000,0.00,150914,,A*6B
$GPGGA,114339.000,3722.6279,N,00559.1904,W,1,0,,1.0,M,,M,,*49
$GPRMC,114339.000,A,3722.6279,N,00559.1904,W,0.000,0.00,150914,,A*6E
$GPGGA,114354.000,3722.6321,N,00559.1850,W,1,0,,1.0,M,,M,,*4E
$GPRMC,114354.000,A,3722.6321,N,00559.1850,W,0.000,0.00,150914,,A*69
$GPGGA,114411.000,3722.6316,N,00559.1753,W,1,0,,1.0,M,,M,,*40
$GPRMC,114411.000,A,3722.6316,N,00559.1753,W,0.000,0.00,150914,,A*67
$GPGGA,114445.000,3722.6387,N,00559.1594,W,1,0,,1.0,M,,M,,*40
$GPRMC,114445.000,A,3722.6387,N,00559.1594,W,0.000,0.00,150914,,A*67
$GPGGA,114510.000,3722.6321,N,00559.1636,W,1,0,,1.0,M,,M,,*46
$GPRMC,114510.000,A,3722.6321,N,00559.1636,W,0.000,0.00,150914,,A*61
$GPGGA,114530.000,3722.6279,N,00559.1566,W,1,0,,1.0,M,,M,,*4E
$GPRMC,114530.000,A,3722.6279,N,00559.1566,W,0.000,0.00,150914,,A*69
$GPGGA,115054.000,3722.5911,N,00559.1709,W,1,0,,1.0,M,,M,,*45
$GPRMC,115054.000,A,3722.5911,N,00559.1709,W,0.000,0.00,150914,,A*62
$GPGGA,115141.000,3722.5797,N,00559.1626,W,1,0,,1.0,M,,M,,*4C
$GPRMC,115141.000,A,3722.5797,N,00559.1626,W,0.000,0.00,150914,,A*6B
$GPGGA,115215.000,3722.5900,N,00559.1665,W,1,0,,1.0,M,,M,,*49
$GPRMC,115215.000,A,3722.5900,N,00559.1665,W,0.000,0.00,150914,,A*6E
$GPGGA,115230.000,3722.5906,N,00559.1532,W,1,0,,1.0,M,,M,,*49
$GPRMC,115230.000,A,3722.5906,N,00559.1532,W,0.000,0.00,150914,,A*6E
$GPGGA,115245.000,3722.6019,N,00559.1493,W,1,0,,1.0,M,,M,,*45
$GPRMC,115245.000,A,3722.6019,N,00559.1493,W,0.000,0.00,150914,,A*62
$GPGGA,115315.000,3722.6126,N,00559.1269,W,1,0,,1.0,M,,M,,*4F
$GPRMC,115315.000,A,3722.6126,N,00559.1269,W,0.000,0.00,150914,,A*68
$GPGGA,115330.000,3722.6167,N,00559.1313,W,1,0,,0.0,M,,M,,*40
$GPRMC,115330.000,A,3722.6167,N,00559.1313,W,0.000,0.00,150914,,A*66
$GPGGA,115345.000,3722.6266,N,00559.1325,W,1,0,,0.0,M,,M,,*45
$GPRMC,115345.000,A,3722.6266,N,00559.1325,W,0.000,0.00,150914,,A*63
$GPGGA,115400.000,3722.6389,N,00559.1344,W,1,0,,0.0,M,,M,,*44
$GPRMC,115400.000,A,3722.6389,N,00559.1344,W,0.000,0.00,150914,,A*62
$GPGGA,115507.000,3722.6728,N,00559.1944,W,1,0,,1.0,M,,M,,*46
$GPRMC,115507.000,A,3722.6728,N,00559.1944,W,0.000,0.00,150914,,A*61
$GPGGA,115554.000,3722.6989,N,00559.1878,W,1,0,,1.0,M,,M,,*4B
$GPRMC,115554.000,A,3722.6989,N,00559.1878,W,0.000,0.00,150914,,A*6C
$GPGGA,115637.000,3722.6902,N,00559.2186,W,1,0,,1.0,M,,M,,*45
$GPRMC,115637.000,A,3722.6902,N,00559.2186,W,0.000,0.00,150914,,A*62
$GPGGA,115652.000,3722.6842,N,00559.2235,W,1,0,,1.0,M,,M,,*48
$GPRMC,115652.000,A,3722.6842,N,00559.2235,W,0.000,0.00,150914,,A*6F
$GPGGA,115707.000,3722.6810,N,00559.2352,W,1,0,,1.0,M,,M,,*4E
$GPRMC,115707.000,A,3722.6810,N,00559.2352,W,0.000,0.00,150914,,A*69
$GPGGA,115722.000,3722.6808,N,00559.2434,W,1,0,,1.0,M,,M,,*47
$GPRMC,115722.000,A,3722.6808,N,00559.2434,W,0.000,0.00,150914,,A*60
$GPGGA,115738.000,3722.6776,N,00559.2591,W,1,0,,1.0,M,,M,,*44
$GPRMC,115738.000,A,3722.6776,N,00559.2591,W,0.000,0.00,150914,,A*63
$GPGGA,115823.000,3722.6696,N,00559.2728,W,1,0,,1.0,M,,M,,*4E
$GPRMC,115823.000,A,3722.6696,N,00559.2728,W,0.000,0.00,150914,,A*69
$GPGGA,115839.000,3722.6769,N,00559.2827,W,1,0,,1.0,M,,M,,*44
$GPRMC,115839.000,A,3722.6769,N,00559.2827,W,0.000,0.00,150914,,A*63
$GPGGA,115856.000,3722.6710,N,00559.3014,W,1,0,,1.0,M,,M,,*4A
$GPRMC,115856.000,A,3722.6710,N,00559.3014,W,0.000,0.00,150914,,A*6D
$GPGGA,115913.000,3722.6913,N,00559.3000,W,1,0,,1.0,M,,M,,*42
$GPRMC,115913.000,A,3722.6913,N,00559.3000,W,0.000,0.00,150914,,A*65
$GPGGA,115935.000,3722.6918,N,00559.3077,W,1,0,,1.0,M,,M,,*4D
$GPRMC,115935.000,A,3722.6918,N,00559.3077,W,0.000,0.00,150914,,A*6A
$GPGGA,115951.000,3722.6996,N,00559.3115,W,1,0,,1.0,M,,M,,*4C
$GPRMC,115951.000,A,3722.6996,N,00559.3115,W,0.000,0.00,150914,,A*6B
$GPGGA,120008.000,3722.7133,N,00559.3260,W,1,0,,1.0,M,,M,,*48
$GPRMC,120008.000,A,3722.7133,N,00559.3260,W,0.000,0.00,150914,,A*6F
$GPGGA,120023.000,3722.7174,N,00559.3260,W,1,0,,1.0,M,,M,,*42
$GPRMC,120023.000,A,3722.7174,N,00559.3260,W,0.000,0.00,150914,,A*65
$GPGGA,120038.000,3722.7261,N,00559.3348,W,1,0,,1.0,M,,M,,*44
$GPRMC,120038.000,A,3722.7261,N,00559.3348,W,0.000,0.00,150914,,A*63
$GPGGA,120053.000,3722.7344,N,00559.3376,W,1,0,,1.0,M,,M,,*42
$GPRMC,120053.000,A,3722.7344,N,00559.3376,W,0.000,0.00,150914,,A*65
$GPGGA,120109.000,3722.7378,N,00559.3348,W,1,0,,1.0,M,,M,,*4E
$GPRMC,120109.000,A,3722.7378,N,00559.3348,W,0.000,0.00,150914,,A*69
$GPGGA,120124.000,3722.7403,N,00559.3299,W,1,0,,0.0,M,,M,,*46
$GPRMC,120124.000,A,3722.7403,N,00559.3299,W,0.000,0.00,150914,,A*60
$GPGGA,120139.000,3722.7410,N,00559.3232,W,1,0,,0.0,M,,M,,*49
$GPRMC,120139.000,A,3722.7410,N,00559.3232,W,0.000,0.00,150914,,A*6F
$GPGGA,120155.000,3722.7449,N,00559.3168,W,1,0,,0.0,M,,M,,*43
$GPRMC,120155.000,A,3722.7449,N,00559.3168,W,0.000,0.00,150914,,A*65
$GPGGA,120210.000,3722.7477,N,00559.3142,W,1,0,,0.0,M,,M,,*44
$GPRMC,120210.000,A,3722.7477,N,00559.3142,W,0.000,0.00,150914,,A*62
$GPGGA,120226.000,3722.7509,N,00559.3207,W,1,0,,0.0,M,,M,,*4B
$GPRMC,120226.000,A,3722.7509,N,00559.3207,W,0.000,0.00,150914,,A*6D
$GPGGA,120241.000,3722.7515,N,00559.3216,W,1,0,,0.0,M,,M,,*47
$GPRMC,120241.000,A,3722.7515,N,00559.3216,W,0.000,0.00,150914,,A*61
$GPGGA,120256.000,3722.7536,N,00559.3210,W,1,0,,0.0,M,,M,,*46
$GPRMC,120256.000,A,3722.7536,N,00559.3210,W,0.000,0.00,150914,,A*60
$GPGGA,120311.000,3722.7731,N,00559.3196,W,1,0,,1.0,M,,M,,*4D
$GPRMC,120311.000,A,3722.7731,N,00559.3196,W,0.000,0.00,150914,,A*6A
$GPGGA,120326.000,3722.7827,N,00559.3166,W,1,0,,1.0,M,,M,,*4E
$GPRMC,120326.000,A,3722.7827,N,00559.3166,W,0.000,0.00,150914,,A*69
