$GPGLL,5425.32,N,107.11,W,82319*65
$GPGLL,5425.32,N,107.1,W,82429*50
$GPGLL,5425.31,N,107.09,W,82446*62
$GPGLL,5425.31,N,107.08,W,82503*63
$GPGLL,5425.31,N,107.06,W,82536*6b
$GPGLL,5425.31,N,107.05,W,82553*6b
$GPGLL,5425.31,N,107.03,W,82610*69
$GPGLL,5425.31,N,107.01,W,82644*6a
$GPGLL,5425.32,N,107,W,82700*47
$GPGLL,5425.32,N,106.98,W,82718*60
$GPGLL,5425.32,N,106.96,W,82735*61
$GPGLL,5425.33,N,106.94,W,82752*63
$GPGLL,5425.32,N,106.92,W,82808*64
$GPGLL,5425.33,N,106.91,W,82826*6a
$GPGLL,5425.32,N,106.9,W,82901*5e
$GPGLL,5425.32,N,106.89,W,82917*61
$GPGLL,5425.32,N,106.88,W,82933*66
$GPGLL,5425.32,N,106.86,W,82950*6d
$GPGLL,5425.32,N,106.84,W,83007*65
$GPGLL,5425.32,N,106.83,W,83023*64
$GPGLL,5425.31,N,106.81,W,83040*60
$GPGLL,5425.31,N,106.8,W,83056*56
$GPGLL,5425.31,N,106.79,W,83113*60
$GPGLL,5425.31,N,106.78,W,83129*68
$GPGLL,5425.3,N,106.76,W,83145*5d
$GPGLL,5425.31,N,106.75,W,83202*6f
$GPGLL,5425.3,N,106.75,W,83234*5b
$GPGLL,5425.29,N,106.73,W,83250*67
$GPGLL,5425.3,N,106.73,W,83306*5d
$GPGLL,5425.29,N,106.71,W,83323*60
$GPGLL,5425.29,N,106.7,W,83357*52
$GPGLL,5425.29,N,106.69,W,83413*6d
$GPGLL,5425.29,N,106.68,W,83446*6c
$GPGLL,5425.28,N,106.66,W,83502*62
$GPGLL,5425.29,N,106.66,W,83537*65
$GPGLL,5425.27,N,106.64,W,83554*6c
$GPGLL,5425.28,N,106.64,W,83644*61
$GPGLL,5425.27,N,106.64,W,83716*68
$GPGLL,5425.26,N,106.63,W,83733*69
$GPGLL,5425.26,N,106.62,W,83749*65
$GPGLL,5425.26,N,106.61,W,83807*63
$GPGLL,5425.25,N,106.6,W,83823*57
$GPGLL,5425.25,N,106.6,W,83855*56
$GPGLL,5425.24,N,106.59,W,83927*69
$GPGLL,5425.23,N,106.6,W,83944*51
$GPGLL,5425.22,N,106.58,W,84001*64
$GPGLL,5425.22,N,106.58,W,84016*62
$GPGLL,5425.21,N,106.57,W,84033*69
$GPGLL,5425.2,N,106.56,W,84051*5d
$GPGLL,5425.2,N,106.56,W,84107*5f
$GPGLL,5425.19,N,106.55,W,84124*67
$GPGLL,5425.18,N,106.56,W,84157*61
$GPGLL,5425.17,N,106.55,W,84214*69
$GPGLL,5425.16,N,106.54,W,84303*6e
$GPGLL,5425.15,N,106.52,W,84319*60
$GPGLL,5425.14,N,106.52,W,84335*6f
$GPGLL,5425.14,N,106.5,W,84351*5f
$GPGLL,5425.13,N,106.49,W,84408*6b
$GPGLL,5425.11,N,106.48,W,84441*65
$GPGLL,5425.11,N,106.47,W,84457*6d
$GPGLL,5425.1,N,106.45,W,84513*5f
$GPGLL,5425.09,N,106.44,W,84529*6f
$GPGLL,5425.08,N,106.44,W,84545*64
$GPGLL,5425.07,N,106.42,W,84602*6d
$GPGLL,5425.07,N,106.41,W,84619*64
$GPGLL,5425.05,N,106.39,W,84635*67
$GPGLL,5425.05,N,106.39,W,84652*66
$GPGLL,5425.04,N,106.37,W,84708*67
$GPGLL,5425.03,N,106.36,W,84724*6f
$GPGLL,5425.02,N,106.35,W,84741*6e
$GPGLL,5425.01,N,106.33,W,84757*6c
$GPGLL,5425.01,N,106.32,W,84813*62
$GPGLL,5425,N,106.31,W,84829*47
$GPGLL,5424.99,N,106.3,W,84845*53
$GPGLL,5424.98,N,106.28,W,84902*69
$GPGLL,5424.98,N,106.27,W,84918*6d
$GPGLL,5424.97,N,106.26,W,84934*6d
$GPGLL,5424.96,N,106.25,W,84950*6d
$GPGLL,5424.95,N,106.23,W,85006*63
$GPGLL,5424.95,N,106.22,W,85022*64
$GPGLL,5424.94,N,106.2,W,85039*5d
$GPGLL,5424.93,N,106.19,W,85056*69
$GPGLL,5424.93,N,106.17,W,85112*66
$GPGLL,5424.92,N,106.16,W,85128*6f
$GPGLL,5424.91,N,106.13,W,85144*63
$GPGLL,5424.9,N,106.13,W,85200*51
$GPGLL,5424.9,N,106.12,W,85217*56
$GPGLL,5424.89,N,106.1,W,85233*5a
$GPGLL,5424.88,N,106.08,W,85249*6f
$GPGLL,5424.88,N,106.07,W,85307*6b
$GPGLL,5424.87,N,106.05,W,85325*66
$GPGLL,5424.86,N,106.04,W,85343*66
$GPGLL,5424.85,N,106.03,W,85402*60
$GPGLL,5424.84,N,106.01,W,85420*63
$GPGLL,5424.83,N,106,W,85436*4c
$GPGLL,5424.83,N,105.99,W,85454*65
$GPGLL,5424.82,N,105.98,W,85511*65
$GPGLL,5424.81,N,105.97,W,85528*63
$GPGLL,5424.8,N,105.96,W,85544*59
$GPGLL,5424.8,N,105.95,W,85600*59
$GPGLL,5424.79,N,105.95,W,85617*69
$GPGLL,5424.78,N,105.93,W,85633*68
$GPGLL,5424.78,N,105.92,W,85649*64
$GPGLL,5424.77,N,105.92,W,85705*62
$GPGLL,5424.76,N,105.91,W,85721*66
$GPGLL,5424.75,N,105.91,W,85737*62
$GPGLL,5424.75,N,105.9,W,85754*56
$GPGLL,5424.73,N,105.89,W,85810*67
$GPGLL,5424.73,N,105.89,W,85826*62
$GPGLL,5424.71,N,105.88,W,85844*65
$GPGLL,5424.7,N,105.87,W,85902*58
$GPGLL,5424.69,N,105.87,W,85920*60
$GPGLL,5424.68,N,105.87,W,85938*68
$GPGLL,5424.68,N,105.86,W,85954*63
$GPGLL,5424.66,N,105.86,W,90013*63
$GPGLL,5424.66,N,105.85,W,90029*69
$GPGLL,5424.65,N,105.84,W,90045*61
$GPGLL,5424.64,N,105.84,W,90102*62
$GPGLL,5424.63,N,105.83,W,90118*69
$GPGLL,5424.62,N,105.83,W,90134*66
$GPGLL,5424.61,N,105.83,W,90150*67
$GPGLL,5424.6,N,105.83,W,90206*56
$GPGLL,5424.59,N,105.82,W,90222*6b
$GPGLL,5424.58,N,105.82,W,90239*60
$GPGLL,5424.57,N,105.81,W,90256*65
$GPGLL,5424.57,N,105.81,W,90312*64
$GPGLL,5424.56,N,105.81,W,90328*6c
$GPGLL,5424.55,N,105.79,W,90344*62
$GPGLL,5424.54,N,105.78,W,90400*65
$GPGLL,5424.54,N,105.77,W,90417*6c
$GPGLL,5424.53,N,105.76,W,90458*61
$GPGLL,5424.53,N,105.74,W,90516*68
$GPGLL,5424.52,N,105.73,W,90533*69
$GPGLL,5424.52,N,105.72,W,90553*6e
$GPGLL,5424.51,N,105.71,W,90611*6b
$GPGLL,5424.51,N,105.69,W,90629*69
$GPGLL,5424.5,N,105.68,W,90646*50
$GPGLL,5424.5,N,105.67,W,90702*5e
$GPGLL,5424.49,N,105.66,W,90719*6d
$GPGLL,5424.49,N,105.64,W,90735*61
$GPGLL,5424.48,N,105.63,W,90752*66
$GPGLL,5424.47,N,105.62,W,90809*69
$GPGLL,5424.47,N,105.6,W,90825*55
$GPGLL,5424.47,N,105.59,W,90841*6d
$GPGLL,5424.46,N,105.57,W,90857*65
$GPGLL,5424.45,N,105.56,W,90914*61
$GPGLL,5424.45,N,105.55,W,90930*64
$GPGLL,5424.44,N,105.52,W,90946*63
$GPGLL,5424.43,N,105.51,W,91018*64
$GPGLL,5424.42,N,105.48,W,91037*60
$GPGLL,5424.41,N,105.46,W,91054*68
$GPGLL,5424.41,N,105.44,W,91130*69
$GPGLL,5424.4,N,105.43,W,91148*50
$GPGLL,5424.4,N,105.41,W,91206*5b
$GPGLL,5424.39,N,105.39,W,91225*6b
$GPGLL,5424.39,N,105.37,W,91243*65
$GPGLL,5424.38,N,105.36,W,91301*62
$GPGLL,5424.38,N,105.35,W,91319*68
$GPGLL,5424.37,N,105.34,W,91337*6a
$GPGLL,5424.37,N,105.33,W,91414*6b
$GPGLL,5424.37,N,105.31,W,91432*6d
$GPGLL,5424.36,N,105.29,W,91450*61
$GPGLL,5424.36,N,105.27,W,91508*63
$GPGLL,5424.35,N,105.25,W,91525*6d
$GPGLL,5424.35,N,105.23,W,91544*6c
$GPGLL,5424.35,N,105.22,W,91600*6e
$GPGLL,5424.34,N,105.2,W,91616*5a
$GPGLL,5424.34,N,105.19,W,91632*66
$GPGLL,5424.34,N,105.17,W,91648*65
$GPGLL,5424.33,N,105.15,W,91704*69
$GPGLL,5424.33,N,105.14,W,91721*6f
$GPGLL,5424.32,N,105.12,W,91737*6f
$GPGLL,5424.33,N,105.11,W,91753*6f
$GPGLL,5424.32,N,105.07,W,91809*69
$GPGLL,5424.32,N,105.06,W,91825*66
$GPGLL,5424.31,N,105.04,W,91841*65
$GPGLL,5424.31,N,105.03,W,91858*6a
$GPGLL,5424.31,N,105.01,W,91914*61
$GPGLL,5424.3,N,104.98,W,91930*57
$GPGLL,5424.3,N,104.97,W,91946*59
$GPGLL,5424.3,N,104.95,W,92003*50
$GPGLL,5424.3,N,104.93,W,92019*5d
$GPGLL,5424.29,N,104.92,W,92036*69
$GPGLL,5424.29,N,104.9,W,92053*58
$GPGLL,5424.3,N,104.88,W,92416*5c
$GPGLL,5424.3,N,104.86,W,92432*54
$GPGLL,5424.3,N,104.84,W,92449*5a
$GPGLL,5424.3,N,104.82,W,92507*57
$GPGLL,5424.31,N,104.8,W,92523*52
$GPGLL,5424.31,N,104.78,W,92541*61
$GPGLL,5424.31,N,104.76,W,92559*66
$GPGLL,5424.32,N,104.73,W,92617*69
$GPGLL,5424.32,N,104.71,W,92633*6d
$GPGLL,5424.32,N,104.7,W,92650*59
$GPGLL,5424.32,N,104.68,W,92707*63
$GPGLL,5424.33,N,104.66,W,92723*6a
$GPGLL,5424.33,N,104.64,W,92739*63
$GPGLL,5424.33,N,104.63,W,92755*6e
$GPGLL,5424.33,N,104.61,W,92812*60
$GPGLL,5424.33,N,104.59,W,92829*63
$GPGLL,5424.34,N,104.57,W,92846*63
$GPGLL,5424.34,N,104.55,W,92903*61
$GPGLL,5424.35,N,104.53,W,92921*66
$GPGLL,5424.35,N,104.5,W,92940*52
$GPGLL,5424.34,N,104.48,W,93014*63
$GPGLL,5424.33,N,104.47,W,93032*6f
$GPGLL,5424.33,N,104.44,W,93048*61
$GPGLL,5424.33,N,104.43,W,93104*6f
$GPGLL,5424.33,N,104.41,W,93120*6b
$GPGLL,5424.32,N,104.39,W,93137*63
$GPGLL,5424.32,N,104.37,W,93153*6f
$GPGLL,5424.33,N,104.35,W,93209*60
$GPGLL,5424.33,N,104.32,W,93226*6a
$GPGLL,5424.33,N,104.3,W,93243*5b
$GPGLL,5424.33,N,104.29,W,93316*62
$GPGLL,5424.33,N,104.26,W,93332*6b
$GPGLL,5424.33,N,104.25,W,93348*65
$GPGLL,5424.34,N,104.23,W,93404*6b
$GPGLL,5424.34,N,104.21,W,93421*6e
$GPGLL,5424.34,N,104.2,W,93437*58
$GPGLL,5424.34,N,104.18,W,93453*61
$GPGLL,5424.35,N,104.16,W,93509*60
$GPGLL,5424.35,N,104.14,W,93525*6c
$GPGLL,5424.35,N,104.12,W,93541*68
$GPGLL,5424.36,N,104.11,W,93559*61
$GPGLL,5424.36,N,104.08,W,93615*62
$GPGLL,5424.36,N,104.06,W,93632*69
$GPGLL,5424.37,N,104.05,W,93649*67
$GPGLL,5424.37,N,104.02,W,93707*6b
$GPGLL,5424.37,N,104,W,93726*44
$GPGLL,5424.38,N,103.97,W,93742*6e
$GPGLL,5424.38,N,103.96,W,93816*61
$GPGLL,5424.38,N,103.94,W,93832*65
$GPGLL,5424.39,N,103.91,W,93849*6d
$GPGLL,5424.39,N,103.9,W,93905*55
$GPGLL,5424.39,N,103.88,W,93922*69
$GPGLL,5424.39,N,103.86,W,93940*63
$GPGLL,5424.4,N,103.85,W,93958*57
$GPGLL,5424.4,N,103.83,W,94014*57
$GPGLL,5424.4,N,103.81,W,94031*52
$GPGLL,5424.4,N,103.79,W,94048*5b
$GPGLL,5424.4,N,103.78,W,94104*53
$GPGLL,5424.4,N,103.76,W,94120*5b
$GPGLL,5424.4,N,103.74,W,94136*5e
$GPGLL,5424.4,N,103.72,W,94152*5a
$GPGLL,5424.4,N,103.71,W,94210*5c
$GPGLL,5424.4,N,103.7,W,94226*68
$GPGLL,5424.4,N,103.68,W,94244*55
$GPGLL,5424.4,N,103.66,W,94457*5f
$GPGLL,5424.4,N,103.65,W,94513*5d
$GPGLL,5424.4,N,103.64,W,94530*5d
$GPGLL,5424.4,N,103.62,W,94546*5a
$GPGLL,5424.4,N,103.6,W,94620*6b
$GPGLL,5424.4,N,103.58,W,94637*56
$GPGLL,5424.4,N,103.57,W,94653*5b
$GPGLL,5424.4,N,103.55,W,94709*57
$GPGLL,5424.4,N,103.54,W,94725*58
$GPGLL,5424.4,N,103.52,W,94743*5e
$GPGLL,5424.41,N,103.51,W,94759*67
$GPGLL,5424.4,N,103.49,W,94816*5b
$GPGLL,5424.4,N,103.48,W,94832*5c
$GPGLL,5424.39,N,103.46,W,94848*61
$GPGLL,5424.39,N,103.44,W,94906*68
$GPGLL,5424.39,N,103.42,W,94922*68
$GPGLL,5424.38,N,103.4,W,94938*50
$GPGLL,5424.37,N,103.38,W,94955*6b
$GPGLL,5424.37,N,103.36,W,95011*6d
$GPGLL,5424.36,N,103.34,W,95027*6b
$GPGLL,5424.36,N,103.32,W,95046*6a
$GPGLL,5424.35,N,103.29,W,95104*64
$GPGLL,5424.34,N,103.27,W,95122*6f
$GPGLL,5424.34,N,103.26,W,95140*6a
$GPGLL,5424.33,N,103.24,W,95158*66
$GPGLL,5424.32,N,103.22,W,95216*68
$GPGLL,5424.32,N,103.2,W,95235*5b
$GPGLL,5424.32,N,103.18,W,95251*62
$GPGLL,5424.31,N,103.16,W,95307*6d
$GPGLL,5424.31,N,103.17,W,95323*6a
$GPGLL,5424.32,N,103.18,W,95415*64
$GPGLL,5424.33,N,103.19,W,95433*60
$GPGLL,5424.34,N,103.21,W,95451*68
$GPGLL,5424.35,N,103.22,W,95509*66
$GPGLL,5424.36,N,103.23,W,95527*68
$GPGLL,5424.37,N,103.24,W,95545*6a
$GPGLL,5424.38,N,103.25,W,95622*66
$GPGLL,5424.39,N,103.26,W,95638*6f
$GPGLL,5424.4,N,103.28,W,95655*54
$GPGLL,5424.41,N,103.28,W,95711*64
$GPGLL,5424.42,N,103.28,W,95727*62
$GPGLL,5424.43,N,103.3,W,95744*5f
$GPGLL,5424.44,N,103.31,W,95800*66
$GPGLL,5424.45,N,103.32,W,95816*63
$GPGLL,5424.46,N,103.33,W,95832*67
$GPGLL,5424.47,N,103.34,W,95848*6c
$GPGLL,5424.48,N,103.34,W,95904*6a
$GPGLL,5424.48,N,103.35,W,95921*6c
$GPGLL,5424.5,N,103.36,W,95937*51
$GPGLL,5424.51,N,103.37,W,95954*64
$GPGLL,5424.51,N,103.37,W,100011*51
$GPGLL,5424.52,N,103.37,W,100027*57
$GPGLL,5424.52,N,103.38,W,100101*5d
$GPGLL,5424.54,N,103.39,W,100117*5d
$GPGLL,5424.55,N,103.4,W,100133*64
$GPGLL,5424.56,N,103.4,W,100149*6a
$GPGLL,5424.57,N,103.4,W,100205*60
$GPGLL,5424.57,N,103.41,W,100222*54
$GPGLL,5424.58,N,103.42,W,100238*53
$GPGLL,5424.6,N,103.42,W,100255*63
$GPGLL,5424.61,N,103.43,W,100311*52
$GPGLL,5424.62,N,103.43,W,100327*54
$GPGLL,5424.62,N,103.44,W,100343*51
$GPGLL,5424.64,N,103.45,W,100401*57
$GPGLL,5424.65,N,103.45,W,100417*51
$GPGLL,5424.65,N,103.47,W,100433*55
$GPGLL,5424.67,N,103.48,W,100449*55
$GPGLL,5424.67,N,103.49,W,100505*5d
$GPGLL,5424.68,N,103.51,W,100522*5e
$GPGLL,5424.69,N,103.52,W,100538*57
$GPGLL,5424.7,N,103.53,W,100554*64
$GPGLL,5424.71,N,103.54,W,100610*51
$GPGLL,5424.71,N,103.54,W,100626*54
$GPGLL,5424.73,N,103.55,W,100642*55
$GPGLL,5424.74,N,103.56,W,100659*5b
$GPGLL,5424.74,N,103.57,W,100715*53
$GPGLL,5424.75,N,103.58,W,100731*5b
$GPGLL,5424.74,N,103.56,W,101137*55
$GPGLL,5424.75,N,103.57,W,101350*56
$GPGLL,5424.75,N,103.57,W,101528*5f
$GPGLL,5424.75,N,103.58,W,101627*5c
$GPGLL,5424.76,N,103.57,W,101745*55
$GPGLL,5424.75,N,103.58,W,101803*54
$GPGLL,5424.75,N,103.59,W,101927*52
$GPGLL,5424.77,N,103.61,W,101945*5f
$GPGLL,5424.78,N,103.62,W,102010*59
$GPGLL,5424.79,N,103.64,W,102033*5f
$GPGLL,5424.83,N,103.65,W,102140*5e
$GPGLL,5424.85,N,103.65,W,102158*51
$GPGLL,5424.86,N,103.66,W,102216*58
$GPGLL,5424.87,N,103.67,W,102233*5f
$GPGLL,5424.88,N,103.68,W,102252*58
$GPGLL,5424.89,N,103.69,W,102309*57
$GPGLL,5424.9,N,103.7,W,102325*59
$GPGLL,5424.91,N,103.71,W,102345*5f
$GPGLL,5424.92,N,103.72,W,102403*5a
$GPGLL,5424.94,N,103.73,W,102424*58
$GPGLL,5424.94,N,103.74,W,102443*5e
$GPGLL,5424.96,N,103.75,W,102502*59
$GPGLL,5424.98,N,103.76,W,102522*56
$GPGLL,5424.99,N,103.77,W,102541*53
$GPGLL,5425,N,103.77,W,102559*75
$GPGLL,5425.01,N,103.78,W,102617*5c
$GPGLL,5425.02,N,103.79,W,102634*5f
$GPGLL,5425.03,N,103.79,W,102652*5e
$GPGLL,5425.04,N,103.8,W,102711*69
$GPGLL,5425.05,N,103.81,W,102729*52
$GPGLL,5425.06,N,103.82,W,102747*5a
$GPGLL,5425.08,N,103.83,W,102804*5d
$GPGLL,5425.09,N,103.83,W,102822*58
$GPGLL,5425.1,N,103.84,W,102839*6d
$GPGLL,5425.11,N,103.85,W,102856*54
$GPGLL,5425.12,N,103.86,W,102913*54
$GPGLL,5425.13,N,103.86,W,102932*56
$GPGLL,5425.15,N,103.88,W,102949*52
$GPGLL,5425.17,N,103.89,W,103023*55
$GPGLL,5425.18,N,103.9,W,103041*66
$GPGLL,5425.19,N,103.9,W,103059*6e
$GPGLL,5425.2,N,103.91,W,103116*6f
$GPGLL,5425.21,N,103.93,W,103133*5b
$GPGLL,5425.22,N,103.93,W,103150*5d
$GPGLL,5425.23,N,103.94,W,103208*55
$GPGLL,5425.24,N,103.95,W,103227*5e
$GPGLL,5425.25,N,103.96,W,103324*5e
$GPGLL,5425.27,N,103.96,W,103341*5f
$GPGLL,5425.28,N,103.95,W,103358*5b
$GPGLL,5425.29,N,103.96,W,103415*57
$GPGLL,5425.3,N,103.95,W,103432*69
$GPGLL,5425.32,N,103.95,W,103450*5f
$GPGLL,5425.33,N,103.95,W,103507*5d
$GPGLL,5425.34,N,103.94,W,103524*5a
$GPGLL,5425.35,N,103.92,W,103541*5e
$GPGLL,5425.36,N,103.91,W,103559*57
$GPGLL,5425.37,N,103.92,W,103616*5d
$GPGLL,5425.38,N,103.93,W,103633*54
$GPGLL,5425.39,N,103.95,W,103649*5e
$GPGLL,5425.39,N,103.95,W,103707*55
$GPGLL,5425.4,N,103.96,W,103724*69
$GPGLL,5425.41,N,103.97,W,103741*5a
$GPGLL,5425.42,N,103.99,W,103758*5f
$GPGLL,5425.43,N,104.01,W,103817*5c
$GPGLL,5425.44,N,104.02,W,103835*58
$GPGLL,5425.45,N,104.03,W,103854*5f
$GPGLL,5425.46,N,104.05,W,103912*59
$GPGLL,5425.47,N,104.06,W,103929*53
$GPGLL,5425.48,N,104.07,W,103947*55
$GPGLL,5425.48,N,104.09,W,104004*52
$GPGLL,5425.49,N,104.09,W,104021*54
$GPGLL,5425.5,N,104.1,W,104038*5c
$GPGLL,5425.52,N,104.11,W,104056*57
$GPGLL,5425.53,N,104.12,W,104112*54
$GPGLL,5425.53,N,104.14,W,104129*5a
$GPGLL,5425.55,N,104.15,W,104146*54
$GPGLL,5425.55,N,104.17,W,104203*54
$GPGLL,5425.56,N,104.18,W,104221*58
$GPGLL,5425.57,N,104.17,W,104238*5e
$GPGLL,5425.58,N,104.18,W,104255*55
$GPGLL,5425.59,N,104.19,W,104312*57
$GPGLL,5425.59,N,104.2,W,104330*6d
$GPGLL,5425.61,N,104.2,W,104348*69
$GPGLL,5425.62,N,104.2,W,104404*65
$GPGLL,5425.63,N,104.21,W,104421*52
$GPGLL,5425.64,N,104.22,W,104438*5e
$GPGLL,5425.65,N,104.23,W,104456*56
$GPGLL,5425.66,N,104.23,W,104513*55
$GPGLL,5425.67,N,104.23,W,104530*55
$GPGLL,5425.69,N,104.23,W,104547*5b
$GPGLL,5425.7,N,104.23,W,104604*67
$GPGLL,5425.71,N,104.23,W,104622*52
$GPGLL,5425.72,N,104.23,W,104639*5b
$GPGLL,5425.74,N,104.23,W,104656*54
$GPGLL,5425.75,N,104.23,W,104713*55
$GPGLL,5425.76,N,104.23,W,104730*57
$GPGLL,5425.78,N,104.24,W,104804*56
$GPGLL,5425.79,N,104.24,W,104821*50
$GPGLL,5425.8,N,104.25,W,104838*6f
$GPGLL,5425.81,N,104.25,W,104856*56
$GPGLL,5425.82,N,104.26,W,104913*56
$GPGLL,5425.83,N,104.26,W,104930*56
$GPGLL,5425.85,N,104.27,W,104947*51
$GPGLL,5425.86,N,104.27,W,105005*5c
$GPGLL,5425.87,N,104.28,W,105022*57
$GPGLL,5425.88,N,104.28,W,105039*52
$GPGLL,5425.89,N,104.29,W,105056*5b
$GPGLL,5425.9,N,104.29,W,105113*63
$GPGLL,5425.91,N,104.3,W,105131*6a
$GPGLL,5425.92,N,104.3,W,105148*67
$GPGLL,5425.94,N,104.3,W,105204*6a
$GPGLL,5425.95,N,104.3,W,105220*6d
$GPGLL,5425.96,N,104.31,W,105238*56
$GPGLL,5425.97,N,104.32,W,105255*5f
$GPGLL,5425.98,N,104.32,W,105312*52
$GPGLL,5425.99,N,104.33,W,105329*5a
$GPGLL,5426.01,N,104.33,W,105348*5f
$GPGLL,5426.02,N,104.33,W,105406*51
$GPGLL,5426.03,N,104.32,W,105426*53
$GPGLL,5426.04,N,104.34,W,105444*56
$GPGLL,5426.05,N,104.34,W,105501*57
$GPGLL,5426.08,N,104.35,W,105535*5c
$GPGLL,5426.09,N,104.35,W,105553*5d
$GPGLL,5426.1,N,104.36,W,105610*62
$GPGLL,5426.12,N,104.36,W,105627*54
$GPGLL,5426.13,N,104.39,W,105644*5f
$GPGLL,5426.14,N,104.4,W,105702*65
$GPGLL,5426.14,N,104.41,W,105719*5e
$GPGLL,5426.16,N,104.42,W,105736*52
$GPGLL,5426.17,N,104.43,W,105753*51
$GPGLL,5426.18,N,104.44,W,105813*52
$GPGLL,5426.19,N,104.45,W,105831*52
$GPGLL,5426.2,N,104.44,W,105850*6e
$GPGLL,5426.21,N,104.45,W,105929*51
$GPGLL,5426.2,N,104.45,W,110405*67
$GPGLL,5426.22,N,104.45,W,110456*53
$GPGLL,5426.24,N,104.44,W,110531*54
$GPGLL,5426.25,N,104.44,W,110548*5b
$GPGLL,5426.26,N,104.44,W,110605*52
$GPGLL,5426.28,N,104.44,W,110622*59
$GPGLL,5426.29,N,104.44,W,110640*5c
$GPGLL,5426.3,N,104.44,W,110659*6c
$GPGLL,5426.31,N,104.44,W,110716*57
$GPGLL,5426.33,N,104.43,W,110733*55
$GPGLL,5426.34,N,104.44,W,110808*52
$GPGLL,5426.36,N,104.43,W,110825*58
$GPGLL,5426.36,N,104.44,W,110842*5e
$GPGLL,5426.38,N,104.44,W,110917*51
$GPGLL,5426.39,N,104.43,W,110934*56
$GPGLL,5426.41,N,104.43,W,110952*59
$GPGLL,5426.42,N,104.44,W,111010*53
$GPGLL,5426.45,N,104.44,W,111045*54
$GPGLL,5426.46,N,104.44,W,111102*55
$GPGLL,5426.47,N,104.44,W,111119*5e
$GPGLL,5426.48,N,104.44,W,111136*5c
$GPGLL,5426.5,N,104.43,W,111154*66
$GPGLL,5426.51,N,104.43,W,111212*56
$GPGLL,5426.53,N,104.42,W,111228*5c
$GPGLL,5426.54,N,104.42,W,111245*50
$GPGLL,5426.55,N,104.4,W,111302*61
$GPGLL,5426.57,N,104.4,W,111354*60
$GPGLL,5426.58,N,104.38,W,111411*56
$GPGLL,5426.6,N,104.37,W,111428*68
$GPGLL,5426.6,N,104.35,W,111446*62
$GPGLL,5426.61,N,104.33,W,111520*54
$GPGLL,5426.63,N,104.32,W,111536*50
$GPGLL,5426.64,N,104.31,W,111552*56
$GPGLL,5426.65,N,104.29,W,111610*5b
$GPGLL,5426.66,N,104.28,W,111627*5d
$GPGLL,5426.68,N,104.27,W,111643*5e
$GPGLL,5426.68,N,104.26,W,111659*54
$GPGLL,5426.7,N,104.26,W,111717*66
$GPGLL,5426.71,N,104.25,W,111734*55
$GPGLL,5426.73,N,104.24,W,111751*55
$GPGLL,5426.74,N,104.22,W,111808*57
$GPGLL,5426.74,N,104.22,W,111826*5b
$GPGLL,5426.76,N,104.2,W,111843*68
$GPGLL,5426.77,N,104.2,W,111900*6f
$GPGLL,5426.78,N,104.18,W,111917*5d
$GPGLL,5426.8,N,104.17,W,111934*64
$GPGLL,5426.8,N,104.16,W,111952*65
$GPGLL,5426.82,N,104.15,W,112009*50
$GPGLL,5426.83,N,104.14,W,112026*5d
$GPGLL,5426.84,N,104.13,W,112043*5e
$GPGLL,5426.85,N,104.12,W,112101*59
$GPGLL,5426.86,N,104.11,W,112117*5e
$GPGLL,5426.88,N,104.1,W,112134*60
$GPGLL,5426.88,N,104.09,W,112150*5a
$GPGLL,5426.9,N,104.08,W,112207*63
$GPGLL,5426.91,N,104.07,W,112225*5d
$GPGLL,5426.93,N,104.06,W,112242*5f
$GPGLL,5426.94,N,104.05,W,112258*50
$GPGLL,5426.95,N,104.04,W,112314*59
$GPGLL,5426.96,N,104.02,W,112332*58
$GPGLL,5426.98,N,104,W,112406*7a
$GPGLL,5426.99,N,103.99,W,112423*55
$GPGLL,5427,N,103.98,W,112440*7e
$GPGLL,5427.02,N,103.96,W,112457*5a
$GPGLL,5427.03,N,103.95,W,112514*5e
$GPGLL,5427.04,N,103.94,W,112530*5e
$GPGLL,5427.05,N,103.92,W,112547*59
$GPGLL,5427.06,N,103.91,W,112604*5d
$GPGLL,5427.07,N,103.9,W,112622*69
$GPGLL,5427.08,N,103.88,W,112638*54
$GPGLL,5427.09,N,103.87,W,112655*51
$GPGLL,5427.1,N,103.85,W,112711*6a
$GPGLL,5427.11,N,103.84,W,112729*51
$GPGLL,5427.11,N,103.82,W,112745*5d
$GPGLL,5427.13,N,103.81,W,112802*50
$GPGLL,5427.13,N,103.79,W,112819*5d
$GPGLL,5427.13,N,103.79,W,112836*50
$GPGLL,5427.14,N,103.78,W,112854*52
$GPGLL,5427.16,N,103.76,W,112910*5f
$GPGLL,5427.17,N,103.74,W,112926*59
$GPGLL,5427.18,N,103.73,W,112943*52
$GPGLL,5427.19,N,103.71,W,113001*5f
$GPGLL,5427.2,N,103.69,W,113018*64
$GPGLL,5427.2,N,103.68,W,113035*6a
$GPGLL,5427.21,N,103.66,W,113052*54
$GPGLL,5427.23,N,103.65,W,113109*5a
$GPGLL,5427.24,N,103.64,W,113125*52
$GPGLL,5427.25,N,103.61,W,113141*54
$GPGLL,5427.26,N,103.6,W,113233*60
$GPGLL,5427.26,N,103.59,W,113250*5f
$GPGLL,5427.27,N,103.6,W,113307*67
$GPGLL,5427.27,N,103.58,W,113647*5d
$GPGLL,5427.27,N,103.55,W,113706*54
$GPGLL,5427.29,N,103.54,W,114402*5b
$GPGLL,5427.29,N,103.52,W,114419*57
$GPGLL,5427.3,N,103.52,W,114437*63
$GPGLL,5427.3,N,103.5,W,114455*55
$GPGLL,5427.31,N,103.48,W,114531*5e
$GPGLL,5427.33,N,103.48,W,114550*5b
$GPGLL,5427.33,N,103.46,W,114608*5b
$GPGLL,5427.34,N,103.44,W,114625*51
$GPGLL,5427.35,N,103.43,W,114642*56
$GPGLL,5427.36,N,103.41,W,114700*50
$GPGLL,5427.37,N,103.4,W,114717*66
$GPGLL,5427.38,N,103.38,W,114734*57
$GPGLL,5427.39,N,103.36,W,114750*5a
$GPGLL,5427.4,N,103.34,W,114808*64
$GPGLL,5427.4,N,103.33,W,114825*6c
$GPGLL,5427.41,N,103.31,W,114841*5d
$GPGLL,5427.42,N,103.29,W,114858*5f
$GPGLL,5427.43,N,103.27,W,114915*58
$GPGLL,5427.44,N,103.25,W,114932*58
$GPGLL,5427.44,N,103.24,W,114949*55
$GPGLL,5427.45,N,103.22,W,115023*56
$GPGLL,5427.46,N,103.21,W,115040*53
$GPGLL,5427.47,N,103.2,W,115056*64
$GPGLL,5427.47,N,103.19,W,115113*5e
$GPGLL,5427.48,N,103.18,W,115130*51
$GPGLL,5427.49,N,103.16,W,115147*5e
$GPGLL,5427.51,N,103.16,W,115203*54
$GPGLL,5427.52,N,103.15,W,115219*5f
$GPGLL,5427.52,N,103.14,W,115236*53
$GPGLL,5427.53,N,103.14,W,115253*51
$GPGLL,5427.55,N,103.13,W,115309*5e
$GPGLL,5427.56,N,103.11,W,115325*51
$GPGLL,5427.57,N,103.1,W,115342*60
$GPGLL,5427.58,N,103.1,W,115359*65
$GPGLL,5427.59,N,103.11,W,115417*58
$GPGLL,5427.6,N,103.11,W,115434*63
$GPGLL,5427.62,N,103.11,W,115451*52
$GPGLL,5427.62,N,103.11,W,115509*5e
$GPGLL,5427.64,N,103.12,W,115528*58
$GPGLL,5427.66,N,103.13,W,115545*50
$GPGLL,5427.67,N,103.13,W,115602*51
$GPGLL,5427.68,N,103.13,W,115619*54
$GPGLL,5427.69,N,103.14,W,115635*5c
$GPGLL,5427.71,N,103.15,W,115653*54
$GPGLL,5427.72,N,103.16,W,115711*53
$GPGLL,5427.73,N,103.17,W,115728*59
$GPGLL,5427.75,N,103.18,W,115745*5b
$GPGLL,5427.76,N,103.18,W,115803*55
$GPGLL,5427.77,N,103.17,W,115820*5a
$GPGLL,5427.79,N,103.2,W,115837*66
$GPGLL,5427.8,N,103.2,W,115854*55
$GPGLL,5427.81,N,103.2,W,115912*67
$GPGLL,5427.83,N,103.2,W,115929*6d
$GPGLL,5427.84,N,103.22,W,115946*51
$GPGLL,5427.84,N,103.24,W,120111*5b
$GPGLL,5427.84,N,103.26,W,120128*53
$GPGLL,5427.85,N,103.28,W,120147*55
$GPGLL,5427.85,N,103.31,W,120204*59
$GPGLL,5427.85,N,103.33,W,120222*5f
$GPGLL,5427.86,N,103.35,W,120241*5f
$GPGLL,5427.87,N,103.37,W,120257*5b
$GPGLL,5427.88,N,103.38,W,120314*5d
$GPGLL,5427.88,N,103.4,W,120330*64
$GPGLL,5427.89,N,103.42,W,120348*58
$GPGLL,5427.89,N,103.43,W,120405*57
$GPGLL,5427.89,N,103.45,W,120422*54
$GPGLL,5427.9,N,103.47,W,120439*64
$GPGLL,5427.9,N,103.5,W,120457*5a
$GPGLL,5427.91,N,103.52,W,120514*5f
$GPGLL,5427.91,N,103.54,W,120532*5d
$GPGLL,5427.92,N,103.55,W,120550*5b
$GPGLL,5427.93,N,103.57,W,120607*59
$GPGLL,5427.94,N,103.58,W,120624*50
$GPGLL,5427.95,N,103.6,W,120640*68
$GPGLL,5427.96,N,103.62,W,120656*5e
$GPGLL,5427.97,N,103.63,W,120714*59
$GPGLL,5427.98,N,103.63,W,120731*51
$GPGLL,5427.99,N,103.65,W,120748*58
$GPGLL,5428,N,103.67,W,120805*7d
$GPGLL,5428.01,N,103.69,W,120823*58
$GPGLL,5428.01,N,103.7,W,120839*6b
$GPGLL,5428.02,N,103.73,W,120856*52
$GPGLL,5428.02,N,103.74,W,120913*55
$GPGLL,5428.03,N,103.75,W,120931*55
$GPGLL,5428.03,N,103.77,W,120948*59
$GPGLL,5428.04,N,103.79,W,121006*52
$GPGLL,5428.04,N,103.81,W,121023*52
$GPGLL,5428.04,N,103.82,W,121042*56
$GPGLL,5428.05,N,103.83,W,121058*5d
$GPGLL,5428.06,N,103.85,W,121115*50
$GPGLL,5428.06,N,103.86,W,121132*56
$GPGLL,5428.07,N,103.89,W,121149*54
$GPGLL,5428.07,N,103.91,W,121205*56
$GPGLL,5428.08,N,103.92,W,121238*54
$GPGLL,5428.08,N,103.94,W,121256*5a
$GPGLL,5428.09,N,103.95,W,121315*5c
$GPGLL,5428.09,N,103.97,W,121334*5d
$GPGLL,5428.1,N,103.97,W,121352*65
$GPGLL,5428.11,N,104,W,121412*70
$GPGLL,5428.11,N,104.01,W,121429*57
$GPGLL,5428.12,N,104.02,W,121445*5d
$GPGLL,5428.12,N,104.02,W,121501*5c
$GPGLL,5428.13,N,104.02,W,121519*54
$GPGLL,5428.15,N,104.02,W,121536*5f
$GPGLL,5428.16,N,104.02,W,121552*5e
$GPGLL,5428.18,N,104.02,W,121609*5d
$GPGLL,5428.19,N,104.01,W,121628*5c
$GPGLL,5428.2,N,104.01,W,121644*6c
$GPGLL,5428.21,N,104.01,W,121719*54
$GPGLL,5428.24,N,103.99,W,121737*5b
$GPGLL,5428.24,N,103.98,W,121756*5d
$GPGLL,5428.26,N,103.97,W,121815*58
$GPGLL,5428.27,N,103.99,W,121833*53
$GPGLL,5428.28,N,104.02,W,121852*5e
$GPGLL,5428.29,N,104.03,W,121910*59
$GPGLL,5428.29,N,104.04,W,121928*55
$GPGLL,5428.31,N,104.05,W,121946*55
$GPGLL,5428.32,N,104.07,W,122004*58
$GPGLL,5428.33,N,104.07,W,122023*5c
$GPGLL,5428.34,N,104.1,W,122041*69
$GPGLL,5428.35,N,104.11,W,122059*50
$GPGLL,5428.36,N,104.12,W,122116*5a
$GPGLL,5428.38,N,104.13,W,122136*57
$GPGLL,5428.39,N,104.14,W,122155*54
$GPGLL,5428.4,N,104.15,W,122214*6d
$GPGLL,5428.41,N,104.17,W,122233*5b
$GPGLL,5428.42,N,104.18,W,122252*50
$GPGLL,5428.43,N,104.19,W,122310*57
$GPGLL,5428.44,N,104.19,W,122327*54
$GPGLL,5428.46,N,104.18,W,122345*53
$GPGLL,5428.46,N,104.16,W,122402*59
$GPGLL,5428.46,N,104.14,W,122419*51
$GPGLL,5428.47,N,104.12,W,122437*5a
$GPGLL,5428.47,N,104.1,W,122454*6d
$GPGLL,5428.47,N,104.08,W,122510*55
$GPGLL,5428.48,N,104.07,W,122526*50
$GPGLL,5428.49,N,104.05,W,122544*57
$GPGLL,5428.49,N,104.03,W,122601*53
$GPGLL,5428.5,N,104.02,W,122617*6d
$GPGLL,5428.51,N,104,W,122634*71
$GPGLL,5428.51,N,103.98,W,122650*5b
$GPGLL,5428.52,N,103.96,W,122708*5a
$GPGLL,5428.53,N,103.94,W,122728*5b
$GPGLL,5428.52,N,103.92,W,122746*54
$GPGLL,5428.53,N,103.89,W,122805*57
$GPGLL,5428.54,N,103.87,W,122841*5e
$GPGLL,5428.55,N,103.84,W,122901*59
$GPGLL,5428.56,N,103.83,W,122938*57
$GPGLL,5428.58,N,103.84,W,122959*59
$GPGLL,5428.58,N,103.85,W,123017*5a
$GPGLL,5428.59,N,103.83,W,123034*5c
$GPGLL,5428.59,N,103.86,W,123053*58
$GPGLL,5428.59,N,103.85,W,123702*58
$GPGLL,5428.58,N,103.85,W,124257*5b
$GPGLL,5428.61,N,103.85,W,132002*54
$GPGLL,5428.65,N,103.85,W,132105*56
$GPGLL,5428.66,N,103.86,W,132145*52
$GPGLL,5428.68,N,103.87,W,132204*5b
$GPGLL,5428.68,N,103.9,W,132223*68
$GPGLL,5428.71,N,103.96,W,132305*53
$GPGLL,5428.71,N,103.96,W,132346*54
$GPGLL,5428.73,N,103.98,W,132404*59
$GPGLL,5428.73,N,104,W,132423*74
$GPGLL,5428.74,N,104.02,W,132443*59
$GPGLL,5428.75,N,104.04,W,132501*59
$GPGLL,5428.76,N,104.07,W,132520*5a
$GPGLL,5428.77,N,104.1,W,132537*6b
$GPGLL,5428.79,N,104.13,W,132614*54
$GPGLL,5428.79,N,104.15,W,132656*54
$GPGLL,5428.8,N,104.17,W,132715*66
$GPGLL,5428.81,N,104.19,W,132734*5a
$GPGLL,5428.83,N,104.2,W,132811*6a
$GPGLL,5428.84,N,104.2,W,132829*66
$GPGLL,5428.87,N,104.2,W,132850*6b
$GPGLL,5428.9,N,104.2,W,132953*5f
$GPGLL,5428.91,N,104.18,W,133018*52
$GPGLL,5428.92,N,104.16,W,133038*5d
$GPGLL,5428.92,N,104.14,W,133056*57
$GPGLL,5428.93,N,104.12,W,133115*56
$GPGLL,5428.92,N,104.1,W,133133*61
$GPGLL,5428.93,N,104.1,W,133151*64
$GPGLL,5428.94,N,104.08,W,133210*5c
$GPGLL,5428.95,N,104.07,W,133228*59
$GPGLL,5428.95,N,104.07,W,133247*50
$GPGLL,5428.96,N,104.06,W,133322*50
$GPGLL,5428.97,N,104.05,W,133340*56
$GPGLL,5428.98,N,104.05,W,133357*5f
$GPGLL,5429,N,104.04,W,133433*75
$GPGLL,5429.02,N,104.03,W,133531*5d
$GPGLL,5429.05,N,104.01,W,133635*5f
$GPGLL,5429.07,N,103.99,W,133701*5d
$GPGLL,5429.09,N,103.99,W,133727*57
$GPGLL,5429.11,N,104,W,133748*7e
$GPGLL,5429.13,N,103.99,W,133829*5d
$GPGLL,5429.14,N,104.02,W,133846*56
$GPGLL,5429.16,N,104.03,W,133923*57
$GPGLL,5429.17,N,104.04,W,133941*55
$GPGLL,5429.15,N,104.05,W,133959*5f
$GPGLL,5429.14,N,104.06,W,134017*59
$GPGLL,5429.13,N,104.08,W,134034*51
$GPGLL,5429.12,N,104.11,W,134053*59
$GPGLL,5429.12,N,104.14,W,134111*5b
$GPGLL,5429.11,N,104.15,W,134131*5b
$GPGLL,5429.11,N,104.18,W,134149*59
$GPGLL,5429.11,N,104.2,W,134206*6a
$GPGLL,5429.1,N,104.22,W,134223*6e
$GPGLL,5429.11,N,104.23,W,134242*59
$GPGLL,5429.1,N,104.25,W,134259*64
$GPGLL,5429.09,N,104.26,W,134317*54
$GPGLL,5429.09,N,104.27,W,134336*56
$GPGLL,5429.08,N,104.29,W,134355*5c
$GPGLL,5429.07,N,104.31,W,134414*58
$GPGLL,5429.07,N,104.33,W,134433*5f
$GPGLL,5429.07,N,104.35,W,134454*58
$GPGLL,5429.06,N,104.39,W,134511*55
$GPGLL,5429.05,N,104.41,W,134545*58
$GPGLL,5429.04,N,104.43,W,134621*5a
$GPGLL,5429.04,N,104.43,W,134638*52
$GPGLL,5429.04,N,104.45,W,134656*5c
$GPGLL,5429.03,N,104.47,W,134713*59
$GPGLL,5429.03,N,104.5,W,134730*6e
$GPGLL,5429.03,N,104.54,W,134805*53
$GPGLL,5429.02,N,104.56,W,134839*5f
$GPGLL,5429.02,N,104.57,W,134857*56
$GPGLL,5429.02,N,104.61,W,134914*55
$GPGLL,5429.03,N,104.63,W,135137*5e
$GPGLL,5429.04,N,104.66,W,135156*5b
$GPGLL,5429.04,N,104.68,W,135214*50
$GPGLL,5429.04,N,104.69,W,135231*56
$GPGLL,5429.04,N,104.72,W,135248*52
$GPGLL,5429.05,N,104.77,W,135323*5a
$GPGLL,5429.05,N,104.78,W,135357*56
$GPGLL,5429.05,N,104.8,W,135414*61
$GPGLL,5429.05,N,104.84,W,135432*51
$GPGLL,5429.05,N,104.88,W,135507*5a
$GPGLL,5429.05,N,104.89,W,135541*59
$GPGLL,5429.05,N,104.92,W,135559*5a
$GPGLL,5429.05,N,104.94,W,135616*54
$GPGLL,5429.04,N,104.96,W,135650*55
$GPGLL,5429.04,N,104.97,W,135707*57
$GPGLL,5429.03,N,105,W,135725*71
$GPGLL,5429.03,N,105.02,W,135758*57
$GPGLL,5429.02,N,105.04,W,135815*56
$GPGLL,5429.02,N,105.05,W,135833*53
$GPGLL,5429.01,N,105.07,W,135850*57
$GPGLL,5429.01,N,105.09,W,135907*5a
$GPGLL,5429,N,105.11,W,135925*7c
$GPGLL,5428.99,N,105.13,W,140000*5d
$GPGLL,5428.98,N,105.14,W,140051*5f
$GPGLL,5428.98,N,105.15,W,140108*53
$GPGLL,5428.97,N,105.17,W,140125*51
$GPGLL,5428.97,N,105.2,W,140142*64
$GPGLL,5428.96,N,105.22,W,140219*5a
$GPGLL,5428.96,N,105.23,W,140237*57
$GPGLL,5428.96,N,105.24,W,140254*55
$GPGLL,5428.96,N,105.25,W,140310*55
$GPGLL,5428.95,N,105.28,W,140327*5f
$GPGLL,5428.96,N,105.3,W,140402*65
$GPGLL,5428.96,N,105.33,W,140419*5c
$GPGLL,5428.96,N,105.35,W,140455*52
$GPGLL,5428.96,N,105.36,W,140512*53
$GPGLL,5428.97,N,105.38,W,140529*54
$GPGLL,5428.97,N,105.4,W,140546*62
$GPGLL,5428.97,N,105.42,W,140604*55
$GPGLL,5428.97,N,105.44,W,140622*57
$GPGLL,5428.97,N,105.46,W,140640*51
$GPGLL,5428.97,N,105.45,W,140657*54
$GPGLL,5428.98,N,105.44,W,140715*5d
$GPGLL,5428.98,N,105.45,W,140848*5b
$GPGLL,5429,N,105.46,W,141330*73
$GPGLL,5429.01,N,105.46,W,141423*59
$GPGLL,5429.02,N,105.46,W,141441*5e
$GPGLL,5429.04,N,105.46,W,141459*51
$GPGLL,5429.04,N,105.46,W,141518*55
$GPGLL,5429.05,N,105.45,W,141610*5c
$GPGLL,5429.06,N,105.45,W,141646*5c
$GPGLL,5429.08,N,105.45,W,141703*52
$GPGLL,5429.09,N,105.45,W,141721*53
$GPGLL,5429.09,N,105.45,W,141738*5b
$GPGLL,5429.11,N,105.46,W,141755*5a
$GPGLL,5429.12,N,105.45,W,141832*54
$GPGLL,5429.13,N,105.43,W,141851*56
$GPGLL,5429.14,N,105.42,W,141908*5d
$GPGLL,5429.15,N,105.43,W,141925*52
$GPGLL,5429.16,N,105.42,W,141942*51
$GPGLL,5429.17,N,105.42,W,142001*5d
$GPGLL,5429.19,N,105.41,W,142021*52
$GPGLL,5429.2,N,105.41,W,142039*61
$GPGLL,5429.21,N,105.4,W,142057*69
$GPGLL,5429.22,N,105.41,W,142115*5c
$GPGLL,5429.23,N,105.39,W,142132*57
$GPGLL,5429.24,N,105.39,W,142149*5c
$GPGLL,5429.26,N,105.38,W,142207*56
$GPGLL,5429.26,N,105.36,W,142224*59
$GPGLL,5429.27,N,105.35,W,142241*58
$GPGLL,5429.28,N,105.34,W,142258*5e
$GPGLL,5429.29,N,105.33,W,142315*50
$GPGLL,5429.3,N,105.32,W,142334*6a
$GPGLL,5429.31,N,105.32,W,142352*5b
$GPGLL,5429.32,N,105.31,W,142410*5a
$GPGLL,5429.33,N,105.3,W,142428*61
$GPGLL,5429.34,N,105.29,W,142446*56
$GPGLL,5429.35,N,105.29,W,142505*51
$GPGLL,5429.36,N,105.28,W,142524*50
$GPGLL,5429.38,N,105.27,W,142601*55
$GPGLL,5429.4,N,105.27,W,142640*6f
$GPGLL,5429.42,N,105.28,W,142700*57
$GPGLL,5429.43,N,105.25,W,142719*53
$GPGLL,5429.44,N,105.25,W,142740*58
$GPGLL,5429.44,N,105.23,W,143240*5a
$GPGLL,5429.45,N,105.22,W,143733*5b
$GPGLL,5429.46,N,105.2,W,143753*6c
$GPGLL,5429.47,N,105.2,W,143829*6f
$GPGLL,5429.48,N,105.21,W,143847*59
$GPGLL,5429.5,N,105.2,W,143923*52
$GPGLL,5429.5,N,105.21,W,143958*6f
$GPGLL,5429.51,N,105.2,W,144018*65
$GPGLL,5429.52,N,105.2,W,144054*6e
$GPGLL,5429.54,N,105.2,W,144219*63
$GPGLL,5429.55,N,105.19,W,144251*54
$GPGLL,5429.57,N,105.19,W,144308*5b
$GPGLL,5429.58,N,105.19,W,144326*58
$GPGLL,5429.59,N,105.18,W,144342*5a
$GPGLL,5429.6,N,105.18,W,144359*6a
$GPGLL,5429.61,N,105.17,W,144417*59
$GPGLL,5429.62,N,105.17,W,144434*5b
$GPGLL,5429.63,N,105.16,W,144451*58
$GPGLL,5429.64,N,105.16,W,144510*5b
$GPGLL,5429.65,N,105.16,W,144527*5e
$GPGLL,5429.66,N,105.15,W,144547*58
$GPGLL,5429.67,N,105.15,W,144604*5d
$GPGLL,5429.68,N,105.14,W,144621*54
$GPGLL,5429.69,N,105.14,W,144638*5d
$GPGLL,5429.7,N,105.14,W,144655*6e
$GPGLL,5429.71,N,105.13,W,144713*5b
$GPGLL,5429.72,N,105.15,W,144731*5e
$GPGLL,5429.74,N,105.14,W,144749*56
$GPGLL,5429.75,N,105.13,W,144807*55
$GPGLL,5429.77,N,105.13,W,144844*50
$GPGLL,5429.79,N,105.13,W,144902*5d
$GPGLL,5429.8,N,105.13,W,144921*6a
$GPGLL,5429.81,N,105.12,W,144941*5c
$GPGLL,5429.83,N,105.12,W,145000*53
$GPGLL,5429.83,N,105.12,W,145018*5a
$GPGLL,5429.86,N,105.11,W,145052*52
$GPGLL,5429.87,N,105.12,W,145111*56
$GPGLL,5429.88,N,105.12,W,145128*53
$GPGLL,5429.89,N,105.12,W,145145*59
$GPGLL,5429.9,N,105.12,W,145203*60
$GPGLL,5429.91,N,105.12,W,145220*50
$GPGLL,5429.92,N,105.13,W,145240*54
$GPGLL,5429.93,N,105.14,W,145258*5b
$GPGLL,5429.94,N,105.14,W,145315*54
$GPGLL,5429.96,N,105.15,W,145332*52
$GPGLL,5429.97,N,105.14,W,145350*56
$GPGLL,5429.97,N,105.16,W,145408*5e
$GPGLL,5429.99,N,105.16,W,145425*5f
$GPGLL,5430,N,105.17,W,145442*79
$GPGLL,5430.01,N,105.18,W,145459*53
$GPGLL,5430.01,N,105.18,W,145517*58
$GPGLL,5430.03,N,105.18,W,145534*5b
$GPGLL,5430.04,N,105.19,W,145552*5d
$GPGLL,5430.05,N,105.18,W,145608*51
$GPGLL,5430.06,N,105.2,W,145625*66
$GPGLL,5430.07,N,105.2,W,145643*67
$GPGLL,5430.08,N,105.2,W,145702*6c
$GPGLL,5430.1,N,105.2,W,145741*52
$GPGLL,5430.12,N,105.21,W,145800*5b
$GPGLL,5430.13,N,105.21,W,145819*52
$GPGLL,5430.14,N,105.22,W,145838*55
$GPGLL,5430.15,N,105.22,W,145857*5d
$GPGLL,5430.16,N,105.23,W,145914*59
$GPGLL,5430.18,N,105.23,W,145934*55
$GPGLL,5430.19,N,105.24,W,145955*54
$GPGLL,5430.2,N,105.24,W,150013*61
$GPGLL,5430.21,N,105.27,W,150030*52
$GPGLL,5430.21,N,105.3,W,150106*60
$GPGLL,5430.22,N,105.31,W,150140*50
$GPGLL,5430.23,N,105.32,W,150158*5b
$GPGLL,5430.23,N,105.35,W,150217*54
$GPGLL,5430.25,N,105.36,W,150237*53
$GPGLL,5430.25,N,105.39,W,150254*59
$GPGLL,5430.27,N,105.42,W,150331*55
$GPGLL,5430.28,N,105.44,W,150413*5b
$GPGLL,5430.28,N,105.46,W,150431*59
$GPGLL,5430.3,N,105.48,W,150510*6c
$GPGLL,5430.31,N,105.5,W,150546*67
$GPGLL,5430.32,N,105.5,W,150605*60
$GPGLL,5430.33,N,105.52,W,150621*55
$GPGLL,5430.33,N,105.54,W,150640*54
$GPGLL,5430.34,N,105.56,W,150658*58
$GPGLL,5430.35,N,105.58,W,150718*52
$GPGLL,5430.35,N,105.6,W,150735*66
$GPGLL,5430.37,N,105.6,W,150810*6c
$GPGLL,5430.38,N,105.62,W,150828*5a
$GPGLL,5430.38,N,105.61,W,150847*50
$GPGLL,5430.39,N,105.63,W,150904*55
$GPGLL,5430.39,N,105.66,W,150939*5e
$GPGLL,5430.39,N,105.67,W,151112*5f
$GPGLL,5430.4,N,105.66,W,151129*68
$GPGLL,5430.4,N,105.67,W,151431*65
$GPGLL,5430.41,N,105.66,W,151939*50
$GPGLL,5430.4,N,105.67,W,151957*68
$GPGLL,5430.4,N,105.66,W,152014*64
$GPGLL,5430.4,N,105.67,W,152626*62
$GPGLL,5430.4,N,105.68,W,152703*6b
$GPGLL,5430.39,N,105.7,W,152853*66
$GPGLL,5430.41,N,105.72,W,152913*5e
$GPGLL,5430.4,N,105.76,W,153011*61
$GPGLL,5430.39,N,105.78,W,153104*54
$GPGLL,5430.38,N,105.79,W,153138*5b
$GPGLL,5430.38,N,105.82,W,153156*57
$GPGLL,5430.38,N,105.83,W,153213*54
$GPGLL,5430.38,N,105.86,W,153229*58
$GPGLL,5430.38,N,105.88,W,153246*5f
$GPGLL,5430.38,N,105.89,W,153343*5a
$GPGLL,5430.38,N,105.91,W,153400*53
$GPGLL,5430.39,N,105.92,W,153436*54
$GPGLL,5430.38,N,105.93,W,153454*50
$GPGLL,5430.38,N,105.95,W,153511*56
$GPGLL,5430.37,N,105.96,W,153546*58
$GPGLL,5430.38,N,105.99,W,153604*5d
$GPGLL,5430.37,N,106,W,153638*70
$GPGLL,5430.37,N,106.02,W,153657*55
$GPGLL,5430.36,N,106.04,W,153716*56
$GPGLL,5430.36,N,106.05,W,153734*57
$GPGLL,5430.35,N,106.07,W,153753*57
$GPGLL,5430.36,N,106.09,W,153812*50
$GPGLL,5430.35,N,106.11,W,153849*54
$GPGLL,5430.34,N,106.13,W,153906*5d
$GPGLL,5430.35,N,106.14,W,153923*5c
$GPGLL,5430.35,N,106.18,W,153940*55
$GPGLL,5430.35,N,106.19,W,153957*52
$GPGLL,5430.35,N,106.21,W,154014*50
$GPGLL,5430.34,N,106.23,W,154050*53
$GPGLL,5430.35,N,106.24,W,154126*55
$GPGLL,5430.34,N,106.25,W,154145*50
$GPGLL,5430.35,N,106.25,W,154203*50
$GPGLL,5430.34,N,106.27,W,154220*52
$GPGLL,5430.34,N,106.29,W,154311*5f
$GPGLL,5430.34,N,106.3,W,154424*66
$GPGLL,5430.34,N,106.31,W,154520*52
$GPGLL,5430.33,N,106.33,W,154634*51
$GPGLL,5430.34,N,106.34,W,154726*53
$GPGLL,5430.34,N,106.34,W,154801*59
$GPGLL,5430.34,N,106.35,W,154818*50
$GPGLL,5430.34,N,106.37,W,154835*5d
$GPGLL,5430.33,N,106.37,W,154853*5a
$GPGLL,5430.32,N,106.39,W,154912*51
$GPGLL,5430.33,N,106.4,W,154929*66
$GPGLL,5430.33,N,106.4,W,154946*6f
$GPGLL,5430.33,N,106.42,W,155003*54
$GPGLL,5430.32,N,106.43,W,155022*57
$GPGLL,5430.32,N,106.45,W,155116*57
$GPGLL,5430.32,N,106.43,W,155133*56
$GPGLL,5430.32,N,106.44,W,155529*5e
$GPGLL,5430.32,N,106.42,W,155730*52
$GPGLL,5430.33,N,106.44,W,155824*5f
$GPGLL,5430.33,N,106.43,W,155843*59
$GPGLL,5430.33,N,106.42,W,155900*5e
$GPGLL,5430.33,N,106.41,W,160047*51
$GPGLL,5430.33,N,106.43,W,160109*58
$GPGLL,5430.34,N,106.43,W,160225*52
$GPGLL,5430.34,N,106.46,W,160340*55
$GPGLL,5430.34,N,106.45,W,160501*55
$GPGLL,5430.35,N,106.45,W,160518*5c
$GPGLL,5430.33,N,106.45,W,160603*53
$GPGLL,5430.35,N,106.48,W,160629*50
$GPGLL,5430.34,N,106.47,W,160706*52
$GPGLL,5430.35,N,106.51,W,160727*57
$GPGLL,5430.34,N,106.5,W,160824*6b
$GPGLL,5430.35,N,106.49,W,160845*55
$GPGLL,5430.35,N,106.52,W,161050*52
$GPGLL,5430.35,N,106.54,W,161110*51
$GPGLL,5430.35,N,106.54,W,161145*51
$GPGLL,5430.35,N,106.58,W,161301*5f
$GPGLL,5430.35,N,106.6,W,161430*61
$GPGLL,5430.35,N,106.6,W,161522*63
$GPGLL,5430.36,N,106.62,W,161539*58
$GPGLL,5430.35,N,106.61,W,161615*55
$GPGLL,5430.35,N,106.63,W,162652*57
$GPGLL,5430.35,N,106.65,W,162805*5d
$GPGLL,5430.35,N,106.67,W,162822*5a
$GPGLL,5430.34,N,106.68,W,162857*56
$GPGLL,5430.35,N,106.69,W,162915*51
$GPGLL,5430.34,N,106.7,W,162933*6c
$GPGLL,5430.34,N,106.71,W,162950*58
$GPGLL,5430.34,N,106.73,W,163028*5d
$GPGLL,5430.34,N,106.71,W,163105*51
$GPGLL,5430.34,N,106.71,W,163124*52
$GPGLL,5430.36,N,106.71,W,163225*52
$GPGLL,5430.37,N,106.71,W,163340*51
$GPGLL,5430.39,N,106.71,W,163417*5a
$GPGLL,5430.4,N,106.7,W,163458*5e
$GPGLL,5430.41,N,106.69,W,163532*5a
$GPGLL,5430.43,N,106.69,W,163629*51
$GPGLL,5430.44,N,106.69,W,163647*5e
$GPGLL,5430.44,N,106.69,W,163705*59
$GPGLL,5430.45,N,106.71,W,163722*54
$GPGLL,5430.46,N,106.71,W,163757*55
$GPGLL,5430.47,N,106.73,W,163814*5e
$GPGLL,5430.49,N,106.74,W,163958*5e
$GPGLL,5430.49,N,106.77,W,164015*5a
$GPGLL,5430.48,N,106.76,W,164052*59
$GPGLL,5430.5,N,106.76,W,164111*66
$GPGLL,5430.49,N,106.75,W,164129*56
$GPGLL,5430.49,N,106.76,W,164227*58
$GPGLL,5430.49,N,106.77,W,164245*5d
$GPGLL,5430.48,N,106.76,W,164303*5e
$GPGLL,5430.49,N,106.8,W,164321*66
$GPGLL,5430.47,N,106.81,W,164338*51
$GPGLL,5430.45,N,106.83,W,164417*5b
$GPGLL,5430.43,N,106.85,W,164437*59
$GPGLL,5430.44,N,106.87,W,164513*5b
$GPGLL,5430.44,N,106.88,W,164531*54
$GPGLL,5430.45,N,106.9,W,164548*62
$GPGLL,5430.45,N,106.91,W,164606*5a
$GPGLL,5430.46,N,106.94,W,164623*5b
$GPGLL,5430.47,N,106.96,W,164640*5d
$GPGLL,5430.46,N,106.98,W,164657*54
$GPGLL,5430.47,N,107,W,164715*7c
$GPGLL,5430.47,N,107.02,W,164732*55
$GPGLL,5430.47,N,107.04,W,164750*57
$GPGLL,5430.47,N,107.06,W,164808*57
$GPGLL,5430.47,N,107.09,W,164826*54
$GPGLL,5430.47,N,107.1,W,164844*68
$GPGLL,5430.47,N,107.13,W,164902*58
$GPGLL,5430.47,N,107.15,W,164919*54
$GPGLL,5430.47,N,107.18,W,164938*5a
$GPGLL,5430.47,N,107.2,W,165017*64
$GPGLL,5430.47,N,107.22,W,165037*54
$GPGLL,5430.47,N,107.24,W,165055*56
$GPGLL,5430.47,N,107.22,W,165114*54
$GPGLL,5430.49,N,107.22,W,165130*5c
$GPGLL,5430.5,N,107.22,W,165147*64
$GPGLL,5430.51,N,107.21,W,165205*53
$GPGLL,5430.52,N,107.21,W,165222*55
$GPGLL,5430.54,N,107.21,W,165239*59
